[{"id": "XsXLVWr1UZWVhKThNvNiaA", "alias": "blue-willow-\u591c\u6765\u6e58-new-york-2", "name": "Blue Willow \u591c\u6765\u6e58", "image_url": "https://s3-media2.fl.yelpcdn.com/bphoto/1E59vOqmXZHBlJe0lLBHtA/o.jpg", "is_closed": false, "url": "https://www.yelp.com/biz/blue-willow-%E5%A4%9C%E6%9D%A5%E6%B9%98-new-york-2?adjust_creative=jtr0-h2hTZMxFOWOENvd4Q&utm_campaign=yelp_api_v3&utm_medium=api_v3_business_search&utm_source=jtr0-h2hTZMxFOWOENvd4Q", "review_count": 973, "categories": [{"alias": "szechuan", "title": "Szechuan"}], "rating": 4.5, "coordinates": {"latitude": 40.76292, "longitude": -73.976546}, "transactions": ["delivery", "pickup"], "location": {"address1": "40 W 56th St", "address2": null, "address3": "", "city": "New York", "zip_code": "10019", "country": "US", "state": "NY", "display_address": ["40 W 56th St", "New York, NY 10019"]}, "phone": "+12122132299", "display_phone": "(212) 213-2299", "distance": 348.0137568924224, "cuisine": "chinese"}, {"id": "BNaveJmi-OUGKG9sRfrIhA", "alias": "mr-sun-new-york", "name": "Mr. Sun", "image_url": "https://s3-media2.fl.yelpcdn.com/bphoto/jswYzFLbD07Xk8dR81_mIA/o.jpg", "is_closed": false, "url": "https://www.yelp.com/biz/mr-sun-new-york?adjust_creative=jtr0-h2hTZMxFOWOENvd4Q&utm_campaign=yelp_api_v3&utm_medium=api_v3_business_search&utm_source=jtr0-h2hTZMxFOWOENvd4Q", "review_count": 251, "categories": [{"alias": "dimsum", "title": "Dim Sum"}, {"alias": "seafood", "title": "Seafood"}], "rating": 4.5, "coordinates": {"latitude": 40.75809, "longitude": -73.98026}, "transactions": ["restaurant_reservation", "delivery", "pickup"], "price": "$$", "location": {"address1": "48 W 48th St", "address2": "", "address3": null, "city": "New York", "zip_code": "10036", "country": "US", "state": "NY", "display_address": ["48 W 48th St", "New York, NY 10036"]}, "phone": "+17183169811", "display_phone": "(718) 316-9811", "distance": 294.7943077003694, "cuisine": "chinese"}, {"id": "0CjK3esfpFcxIopebzjFxA", "alias": "joes-shanghai-new-york-2", "name": "Joe's Shanghai", "image_url": "https://s3-media1.fl.yelpcdn.com/bphoto/gkp9bzPqrcaWIvgOJbatQw/o.jpg", "is_closed": false, "url": "https://www.yelp.com/biz/joes-shanghai-new-york-2?adjust_creative=jtr0-h2hTZMxFOWOENvd4Q&utm_campaign=yelp_api_v3&utm_medium=api_v3_business_search&utm_source=jtr0-h2hTZMxFOWOENvd4Q", "review_count": 7239, "categories": [{"alias": "shanghainese", "title": "Shanghainese"}, {"alias": "seafood", "title": "Seafood"}, {"alias": "noodles", "title": "Noodles"}], "rating": 4.0, "coordinates": {"latitude": 40.7156608, "longitude": -73.9967012}, "transactions": ["delivery", "pickup"], "price": "$$", "location": {"address1": "46 Bowery St", "address2": "", "address3": "", "city": "New York", "zip_code": "10013", "country": "US", "state": "NY", "display_address": ["46 Bowery St", "New York, NY 10013"]}, "phone": "+12122338888", "display_phone": "(212) 233-8888", "distance": 5186.084789776587, "cuisine": "chinese"}, {"id": "83zDAk03lFXkgImgkLhT9w", "alias": "chi-restaurant-and-bar-new-york", "name": "Chi Restaurant & Bar", "image_url": "https://s3-media4.fl.yelpcdn.com/bphoto/i88DTquqvXDMHv6tryKwqQ/o.jpg", "is_closed": false, "url": "https://www.yelp.com/biz/chi-restaurant-and-bar-new-york?adjust_creative=jtr0-h2hTZMxFOWOENvd4Q&utm_campaign=yelp_api_v3&utm_medium=api_v3_business_search&utm_source=jtr0-h2hTZMxFOWOENvd4Q", "review_count": 91, "categories": [{"alias": "bars", "title": "Bars"}, {"alias": "szechuan", "title": "Szechuan"}], "rating": 4.5, "coordinates": {"latitude": 40.75547, "longitude": -73.99439}, "transactions": ["restaurant_reservation", "delivery", "pickup"], "location": {"address1": "492 9th Ave", "address2": null, "address3": "", "city": "New York", "zip_code": "10018", "country": "US", "state": "NY", "display_address": ["492 9th Ave", "New York, NY 10018"]}, "phone": "+12129181470", "display_phone": "(212) 918-1470", "distance": 1445.4839385183982, "cuisine": "chinese"}, {"id": "h0pRCiJDrCN7tm3VX5tILQ", "alias": "chili-new-york", "name": "CHILI", "image_url": "https://s3-media2.fl.yelpcdn.com/bphoto/kXEGv1n69TKeZuvkQxyKGw/o.jpg", "is_closed": false, "url": "https://www.yelp.com/biz/chili-new-york?adjust_creative=jtr0-h2hTZMxFOWOENvd4Q&utm_campaign=yelp_api_v3&utm_medium=api_v3_business_search&utm_source=jtr0-h2hTZMxFOWOENvd4Q", "review_count": 704, "categories": [{"alias": "szechuan", "title": "Szechuan"}, {"alias": "dimsum", "title": "Dim Sum"}, {"alias": "cocktailbars", "title": "Cocktail Bars"}], "rating": 4.5, "coordinates": {"latitude": 40.75002, "longitude": -73.98215}, "transactions": ["delivery", "pickup"], "price": "$$", "location": {"address1": "13 E 37th St", "address2": null, "address3": "", "city": "New York", "zip_code": "10016", "country": "US", "state": "NY", "display_address": ["13 E 37th St", "New York, NY 10016"]}, "phone": "+16468820666", "display_phone": "(646) 882-0666", "distance": 1163.9244903415918, "cuisine": "chinese"}, {"id": "0dDCDQz7DrKkSvu9h2hcQw", "alias": "chow-house-new-york", "name": "Chow House", "image_url": "https://s3-media3.fl.yelpcdn.com/bphoto/kzeClsI9_2tkHqKScotx1Q/o.jpg", "is_closed": false, "url": "https://www.yelp.com/biz/chow-house-new-york?adjust_creative=jtr0-h2hTZMxFOWOENvd4Q&utm_campaign=yelp_api_v3&utm_medium=api_v3_business_search&utm_source=jtr0-h2hTZMxFOWOENvd4Q", "review_count": 634, "categories": [{"alias": "szechuan", "title": "Szechuan"}, {"alias": "noodles", "title": "Noodles"}, {"alias": "soup", "title": "Soup"}], "rating": 4.5, "coordinates": {"latitude": 40.72915, "longitude": -74.00072}, "transactions": ["restaurant_reservation", "delivery", "pickup"], "price": "$$", "location": {"address1": "181 Bleecker St", "address2": null, "address3": "", "city": "New York", "zip_code": "10012", "country": "US", "state": "NY", "display_address": ["181 Bleecker St", "New York, NY 10012"]}, "phone": "+12128371021", "display_phone": "(212) 837-1021", "distance": 3928.8169129232433, "cuisine": "chinese"}, {"id": "xq0cX_DgxiJMXwhmEl9kUA", "alias": "caf\u00e9-china-new-york-2", "name": "Caf\u00e9 China", "image_url": "https://s3-media1.fl.yelpcdn.com/bphoto/UhHqxEX2epOvrBFI2pgRzg/o.jpg", "is_closed": false, "url": "https://www.yelp.com/biz/caf%C3%A9-china-new-york-2?adjust_creative=jtr0-h2hTZMxFOWOENvd4Q&utm_campaign=yelp_api_v3&utm_medium=api_v3_business_search&utm_source=jtr0-h2hTZMxFOWOENvd4Q", "review_count": 1921, "categories": [{"alias": "szechuan", "title": "Szechuan"}], "rating": 4.0, "coordinates": {"latitude": 40.751587, "longitude": -73.985815}, "transactions": ["delivery", "pickup"], "price": "$$", "location": {"address1": "59 W 37th St", "address2": null, "address3": "", "city": "New York", "zip_code": "10018", "country": "US", "state": "NY", "display_address": ["59 W 37th St", "New York, NY 10018"]}, "phone": "+12122132810", "display_phone": "(212) 213-2810", "distance": 1118.7690144757516, "cuisine": "chinese"}, {"id": "bVkjBJlAIwKAj9Aw1KVWjA", "alias": "dim-sum-palace-new-york-8", "name": "Dim Sum Palace", "image_url": "https://s3-media4.fl.yelpcdn.com/bphoto/5Dg8lWgTRJ0kIyv5jfqOnw/o.jpg", "is_closed": false, "url": "https://www.yelp.com/biz/dim-sum-palace-new-york-8?adjust_creative=jtr0-h2hTZMxFOWOENvd4Q&utm_campaign=yelp_api_v3&utm_medium=api_v3_business_search&utm_source=jtr0-h2hTZMxFOWOENvd4Q", "review_count": 1717, "categories": [{"alias": "dimsum", "title": "Dim Sum"}, {"alias": "cantonese", "title": "Cantonese"}], "rating": 4.0, "coordinates": {"latitude": 40.76015, "longitude": -73.9893699}, "transactions": ["delivery", "pickup"], "price": "$$", "location": {"address1": "334 W 46th St", "address2": null, "address3": "", "city": "New York", "zip_code": "10036", "country": "US", "state": "NY", "display_address": ["334 W 46th St", "New York, NY 10036"]}, "phone": "+16468611910", "display_phone": "(646) 861-1910", "distance": 913.3425917326555, "cuisine": "chinese"}, {"id": "R2OiJx2vW67hLbNu4w2TqQ", "alias": "chef-guo-new-york", "name": "Chef Guo", "image_url": "https://s3-media1.fl.yelpcdn.com/bphoto/_YMV4vCXXu82Gx89guHhzA/o.jpg", "is_closed": false, "url": "https://www.yelp.com/biz/chef-guo-new-york?adjust_creative=jtr0-h2hTZMxFOWOENvd4Q&utm_campaign=yelp_api_v3&utm_medium=api_v3_business_search&utm_source=jtr0-h2hTZMxFOWOENvd4Q", "review_count": 1, "categories": [{"alias": "chinese", "title": "Chinese"}, {"alias": "catering", "title": "Caterers"}], "rating": 5.0, "coordinates": {"latitude": 40.75636, "longitude": -73.97177}, "transactions": [], "location": {"address1": "135 E 50th St", "address2": "", "address3": null, "city": "New York", "zip_code": "10022", "country": "US", "state": "NY", "display_address": ["135 E 50th St", "New York, NY 10022"]}, "phone": "+12128669888", "display_phone": "(212) 866-9888", "distance": 716.5532990919454, "cuisine": "chinese"}, {"id": "4FD0TAxe70nb3ngk3sXF9Q", "alias": "uluh-new-york", "name": "Uluh", "image_url": "https://s3-media3.fl.yelpcdn.com/bphoto/ebgBK2Y-BCVzwEZyDmhLsg/o.jpg", "is_closed": false, "url": "https://www.yelp.com/biz/uluh-new-york?adjust_creative=jtr0-h2hTZMxFOWOENvd4Q&utm_campaign=yelp_api_v3&utm_medium=api_v3_business_search&utm_source=jtr0-h2hTZMxFOWOENvd4Q", "review_count": 905, "categories": [{"alias": "tea", "title": "Tea Rooms"}, {"alias": "asianfusion", "title": "Asian Fusion"}, {"alias": "szechuan", "title": "Szechuan"}], "rating": 4.5, "coordinates": {"latitude": 40.7293403, "longitude": -73.9866071}, "transactions": ["delivery", "pickup"], "price": "$$$", "location": {"address1": "152 2nd Ave", "address2": "Ste A", "address3": "", "city": "New York", "zip_code": "10003", "country": "US", "state": "NY", "display_address": ["152 2nd Ave", "Ste A", "New York, NY 10003"]}, "phone": "+19172615963", "display_phone": "(917) 261-5963", "distance": 3500.3658402898695, "cuisine": "chinese"}, {"id": "iXH9H75idkSB-Eudo5ABhg", "alias": "tang-by-mr-sun-new-york", "name": "Tang By Mr. Sun", "image_url": "https://s3-media2.fl.yelpcdn.com/bphoto/qTVtuXOy6Poq72uFgNEI1w/o.jpg", "is_closed": false, "url": "https://www.yelp.com/biz/tang-by-mr-sun-new-york?adjust_creative=jtr0-h2hTZMxFOWOENvd4Q&utm_campaign=yelp_api_v3&utm_medium=api_v3_business_search&utm_source=jtr0-h2hTZMxFOWOENvd4Q", "review_count": 18, "categories": [{"alias": "asianfusion", "title": "Asian Fusion"}], "rating": 4.5, "coordinates": {"latitude": 40.77614, "longitude": -73.95616}, "transactions": ["restaurant_reservation"], "location": {"address1": "1442 3rd Ave", "address2": null, "address3": "", "city": "New York", "zip_code": "10028", "country": "US", "state": "NY", "display_address": ["1442 3rd Ave", "New York, NY 10028"]}, "phone": "+16465902910", "display_phone": "(646) 590-2910", "distance": 2581.958366535786, "cuisine": "chinese"}, {"id": "sRWRA4dcN_NR1JGpuRVouA", "alias": "nan-xiang-xiao-long-bao-manhattan-new-york", "name": "Nan Xiang Xiao Long Bao - Manhattan", "image_url": "https://s3-media3.fl.yelpcdn.com/bphoto/lmcpkjW6fo_uJqBnxxqk4w/o.jpg", "is_closed": false, "url": "https://www.yelp.com/biz/nan-xiang-xiao-long-bao-manhattan-new-york?adjust_creative=jtr0-h2hTZMxFOWOENvd4Q&utm_campaign=yelp_api_v3&utm_medium=api_v3_business_search&utm_source=jtr0-h2hTZMxFOWOENvd4Q", "review_count": 738, "categories": [{"alias": "dimsum", "title": "Dim Sum"}, {"alias": "desserts", "title": "Desserts"}, {"alias": "noodles", "title": "Noodles"}], "rating": 4.5, "coordinates": {"latitude": 40.74822527534694, "longitude": -73.9857786}, "transactions": [], "price": "$$", "location": {"address1": "24 W 33rd St", "address2": null, "address3": "", "city": "New York", "zip_code": "10001", "country": "US", "state": "NY", "display_address": ["24 W 33rd St", "New York, NY 10001"]}, "phone": "+12129703888", "display_phone": "(212) 970-3888", "distance": 1467.387113754276, "cuisine": "chinese"}, {"id": "wfhMIiMh2A2psCGONOVSlg", "alias": "han-dynasty-new-york", "name": "Han Dynasty", "image_url": "https://s3-media3.fl.yelpcdn.com/bphoto/G5jm9G3m_tquqwDm_qHoVQ/o.jpg", "is_closed": false, "url": "https://www.yelp.com/biz/han-dynasty-new-york?adjust_creative=jtr0-h2hTZMxFOWOENvd4Q&utm_campaign=yelp_api_v3&utm_medium=api_v3_business_search&utm_source=jtr0-h2hTZMxFOWOENvd4Q", "review_count": 1359, "categories": [{"alias": "szechuan", "title": "Szechuan"}, {"alias": "noodles", "title": "Noodles"}, {"alias": "beerbar", "title": "Beer Bar"}], "rating": 4.0, "coordinates": {"latitude": 40.732072, "longitude": -73.988074}, "transactions": ["delivery", "pickup"], "price": "$$", "location": {"address1": "90 3rd Ave", "address2": "", "address3": "", "city": "New York", "zip_code": "10003", "country": "US", "state": "NY", "display_address": ["90 3rd Ave", "New York, NY 10003"]}, "phone": "+12123908685", "display_phone": "(212) 390-8685", "distance": 3231.601932577536, "cuisine": "chinese"}, {"id": "oowNI_aUmGEFa_VW8BFgRg", "alias": "tri-dim-shanghai-new-york-4", "name": "Tri Dim Shanghai", "image_url": "https://s3-media1.fl.yelpcdn.com/bphoto/-HycyO1XNiKGN8q28RYATg/o.jpg", "is_closed": false, "url": "https://www.yelp.com/biz/tri-dim-shanghai-new-york-4?adjust_creative=jtr0-h2hTZMxFOWOENvd4Q&utm_campaign=yelp_api_v3&utm_medium=api_v3_business_search&utm_source=jtr0-h2hTZMxFOWOENvd4Q", "review_count": 539, "categories": [{"alias": "shanghainese", "title": "Shanghainese"}, {"alias": "dimsum", "title": "Dim Sum"}, {"alias": "szechuan", "title": "Szechuan"}], "rating": 4.0, "coordinates": {"latitude": 40.773951, "longitude": -73.957927}, "transactions": ["restaurant_reservation", "delivery", "pickup"], "price": "$$", "location": {"address1": "1378 3rd Ave", "address2": "", "address3": null, "city": "New York", "zip_code": "10075", "country": "US", "state": "NY", "display_address": ["1378 3rd Ave", "New York, NY 10075"]}, "phone": "+12125853388", "display_phone": "(212) 585-3388", "distance": 2311.776214972571, "cuisine": "chinese"}, {"id": "ojbH3wnRu050hRhkmoxRiA", "alias": "han-dynasty-new-york-8", "name": "Han Dynasty", "image_url": "https://s3-media3.fl.yelpcdn.com/bphoto/-aIQqghSAjISvaYL-9w5oA/o.jpg", "is_closed": false, "url": "https://www.yelp.com/biz/han-dynasty-new-york-8?adjust_creative=jtr0-h2hTZMxFOWOENvd4Q&utm_campaign=yelp_api_v3&utm_medium=api_v3_business_search&utm_source=jtr0-h2hTZMxFOWOENvd4Q", "review_count": 712, "categories": [{"alias": "szechuan", "title": "Szechuan"}], "rating": 4.0, "coordinates": {"latitude": 40.78752, "longitude": -73.97647}, "transactions": ["delivery", "pickup"], "price": "$$", "location": {"address1": "215 W 85th St", "address2": "", "address3": "", "city": "New York", "zip_code": "10024", "country": "US", "state": "NY", "display_address": ["215 W 85th St", "New York, NY 10024"]}, "phone": "+12128589060", "display_phone": "(212) 858-9060", "distance": 3041.5260429295026, "cuisine": "chinese"}, {"id": "lynQoI3w_pzYfHGeuUU-Qg", "alias": "shu-jiao-fu-zhou-new-york-2", "name": "Shu Jiao Fu Zhou", "image_url": "https://s3-media2.fl.yelpcdn.com/bphoto/Nmkgn1o5hidyES6mWk8VHg/o.jpg", "is_closed": false, "url": "https://www.yelp.com/biz/shu-jiao-fu-zhou-new-york-2?adjust_creative=jtr0-h2hTZMxFOWOENvd4Q&utm_campaign=yelp_api_v3&utm_medium=api_v3_business_search&utm_source=jtr0-h2hTZMxFOWOENvd4Q", "review_count": 1316, "categories": [{"alias": "chinese", "title": "Chinese"}], "rating": 4.5, "coordinates": {"latitude": 40.7174109, "longitude": -73.99210041198651}, "transactions": ["delivery", "pickup"], "price": "$", "location": {"address1": "295 Grand St", "address2": null, "address3": null, "city": "New York", "zip_code": "10002", "country": "US", "state": "NY", "display_address": ["295 Grand St", "New York, NY 10002"]}, "phone": "+12126252532", "display_phone": "(212) 625-2532", "distance": 4895.564059232317, "cuisine": "chinese"}, {"id": "A-ert0jDRBfku9ogyW_mEg", "alias": "spice-symphony-new-york-3", "name": "Spice Symphony", "image_url": "https://s3-media1.fl.yelpcdn.com/bphoto/ooBprHe-wyNb1dwvd1qhOA/o.jpg", "is_closed": false, "url": "https://www.yelp.com/biz/spice-symphony-new-york-3?adjust_creative=jtr0-h2hTZMxFOWOENvd4Q&utm_campaign=yelp_api_v3&utm_medium=api_v3_business_search&utm_source=jtr0-h2hTZMxFOWOENvd4Q", "review_count": 654, "categories": [{"alias": "chinese", "title": "Chinese"}, {"alias": "indpak", "title": "Indian"}, {"alias": "cocktailbars", "title": "Cocktail Bars"}], "rating": 4.5, "coordinates": {"latitude": 40.7558937072754, "longitude": -73.9715347290039}, "transactions": ["delivery", "pickup"], "price": "$$", "location": {"address1": "150 E 50th St", "address2": "", "address3": null, "city": "New York", "zip_code": "10022", "country": "US", "state": "NY", "display_address": ["150 E 50th St", "New York, NY 10022"]}, "phone": "+12123004869", "display_phone": "(212) 300-4869", "distance": 755.21739977009, "cuisine": "chinese"}, {"id": "0vg2Z-HPwkyVVX613j2ysg", "alias": "pengs-noodle-folk-new-york-2", "name": "Peng's Noodle Folk", "image_url": "https://s3-media3.fl.yelpcdn.com/bphoto/zvRVsO-Hp201-AEplRGfVg/o.jpg", "is_closed": false, "url": "https://www.yelp.com/biz/pengs-noodle-folk-new-york-2?adjust_creative=jtr0-h2hTZMxFOWOENvd4Q&utm_campaign=yelp_api_v3&utm_medium=api_v3_business_search&utm_source=jtr0-h2hTZMxFOWOENvd4Q", "review_count": 562, "categories": [{"alias": "chinese", "title": "Chinese"}, {"alias": "noodles", "title": "Noodles"}, {"alias": "ramen", "title": "Ramen"}], "rating": 4.5, "coordinates": {"latitude": 40.7711335538802, "longitude": -73.9620354269869}, "transactions": ["delivery", "pickup"], "price": "$$", "location": {"address1": "1016 Lexington Ave", "address2": "", "address3": null, "city": "New York", "zip_code": "10021", "country": "US", "state": "NY", "display_address": ["1016 Lexington Ave", "New York, NY 10021"]}, "phone": "+19293913950", "display_phone": "(929) 391-3950", "distance": 1843.0372263467605, "cuisine": "chinese"}, {"id": "Q85ScF9s6vlS5_i453AFvg", "alias": "tangy-noodle-new-york", "name": "Tangy Noodle", "image_url": "https://s3-media1.fl.yelpcdn.com/bphoto/kl0nCzym1cMDF7nhjkgzfg/o.jpg", "is_closed": false, "url": "https://www.yelp.com/biz/tangy-noodle-new-york?adjust_creative=jtr0-h2hTZMxFOWOENvd4Q&utm_campaign=yelp_api_v3&utm_medium=api_v3_business_search&utm_source=jtr0-h2hTZMxFOWOENvd4Q", "review_count": 71, "categories": [{"alias": "noodles", "title": "Noodles"}, {"alias": "dimsum", "title": "Dim Sum"}], "rating": 4.5, "coordinates": {"latitude": 40.740203, "longitude": -74.00193}, "transactions": ["delivery", "pickup"], "location": {"address1": "98 8th Ave", "address2": "", "address3": null, "city": "New York", "zip_code": "10011", "country": "US", "state": "NY", "display_address": ["98 8th Ave", "New York, NY 10011"]}, "phone": "+19172614931", "display_phone": "(917) 261-4931", "distance": 2971.8451047477206, "cuisine": "chinese"}, {"id": "QaolMEijS7L6eodSneOdng", "alias": "tri-dim-shanghai-west-new-york-3", "name": "Tri Dim Shanghai West", "image_url": "https://s3-media2.fl.yelpcdn.com/bphoto/N-YlevGHM_fG7NI_5xRbzw/o.jpg", "is_closed": false, "url": "https://www.yelp.com/biz/tri-dim-shanghai-west-new-york-3?adjust_creative=jtr0-h2hTZMxFOWOENvd4Q&utm_campaign=yelp_api_v3&utm_medium=api_v3_business_search&utm_source=jtr0-h2hTZMxFOWOENvd4Q", "review_count": 226, "categories": [{"alias": "shanghainese", "title": "Shanghainese"}, {"alias": "szechuan", "title": "Szechuan"}, {"alias": "dimsum", "title": "Dim Sum"}], "rating": 4.0, "coordinates": {"latitude": 40.78412, "longitude": -73.97368}, "transactions": ["restaurant_reservation", "delivery", "pickup"], "price": "$$", "location": {"address1": "467 Columbus Ave", "address2": "", "address3": null, "city": "New York", "zip_code": "10024", "country": "US", "state": "NY", "display_address": ["467 Columbus Ave", "New York, NY 10024"]}, "phone": "+12125851398", "display_phone": "(212) 585-1398", "distance": 2688.936836316399, "cuisine": "chinese"}, {"id": "X8ZS-dgiMIJvhwf9SaDnjw", "alias": "wah-fung-no-1-new-york-2", "name": "Wah Fung No 1", "image_url": "https://s3-media4.fl.yelpcdn.com/bphoto/uO14Qw1yVeNln4z8Pr68aQ/o.jpg", "is_closed": false, "url": "https://www.yelp.com/biz/wah-fung-no-1-new-york-2?adjust_creative=jtr0-h2hTZMxFOWOENvd4Q&utm_campaign=yelp_api_v3&utm_medium=api_v3_business_search&utm_source=jtr0-h2hTZMxFOWOENvd4Q", "review_count": 2017, "categories": [{"alias": "hotdogs", "title": "Fast Food"}, {"alias": "cantonese", "title": "Cantonese"}], "rating": 4.5, "coordinates": {"latitude": 40.71735, "longitude": -73.99457}, "transactions": ["delivery"], "price": "$", "location": {"address1": "79 Chrystie St", "address2": "", "address3": "", "city": "New York", "zip_code": "10002", "country": "US", "state": "NY", "display_address": ["79 Chrystie St", "New York, NY 10002"]}, "phone": "+12129255175", "display_phone": "(212) 925-5175", "distance": 4955.254078383452, "cuisine": "chinese"}, {"id": "FXhSEZfIqjMZh4hR0_8jMQ", "alias": "china-xiang-\u4e2d\u56fd\u6e58-new-york-2", "name": "China Xiang \u4e2d\u56fd\u6e58", "image_url": "https://s3-media3.fl.yelpcdn.com/bphoto/MC6-poc5wb7mP-jO7qfHHw/o.jpg", "is_closed": false, "url": "https://www.yelp.com/biz/china-xiang-%E4%B8%AD%E5%9B%BD%E6%B9%98-new-york-2?adjust_creative=jtr0-h2hTZMxFOWOENvd4Q&utm_campaign=yelp_api_v3&utm_medium=api_v3_business_search&utm_source=jtr0-h2hTZMxFOWOENvd4Q", "review_count": 550, "categories": [{"alias": "chinese", "title": "Chinese"}], "rating": 4.0, "coordinates": {"latitude": 40.7582902125633, "longitude": -73.9925113993899}, "transactions": ["restaurant_reservation", "delivery", "pickup"], "price": "$$", "location": {"address1": "360 W 42nd Street", "address2": "", "address3": "", "city": "New York", "zip_code": "10036", "country": "US", "state": "NY", "display_address": ["360 W 42nd Street", "New York, NY 10036"]}, "phone": "+12129676088", "display_phone": "(212) 967-6088", "distance": 1199.3368442478525, "cuisine": "chinese"}, {"id": "jc7lVTvmYMIK5RNpENtS6w", "alias": "szechuan-mountain-house-new-york-2", "name": "Szechuan Mountain House", "image_url": "https://s3-media3.fl.yelpcdn.com/bphoto/VmRw8ZSq_dm_z-AiZuo_Yw/o.jpg", "is_closed": false, "url": "https://www.yelp.com/biz/szechuan-mountain-house-new-york-2?adjust_creative=jtr0-h2hTZMxFOWOENvd4Q&utm_campaign=yelp_api_v3&utm_medium=api_v3_business_search&utm_source=jtr0-h2hTZMxFOWOENvd4Q", "review_count": 668, "categories": [{"alias": "szechuan", "title": "Szechuan"}], "rating": 4.5, "coordinates": {"latitude": 40.72911, "longitude": -73.98858}, "transactions": ["delivery", "pickup"], "price": "$$", "location": {"address1": "23 St Marks Pl", "address2": "", "address3": null, "city": "New York", "zip_code": "10003", "country": "US", "state": "NY", "display_address": ["23 St Marks Pl", "New York, NY 10003"]}, "phone": "+19173883866", "display_phone": "(917) 388-3866", "distance": 3550.4406899367855, "cuisine": "chinese"}, {"id": "WVsPyl-DGRu0O_rQYdIMVQ", "alias": "the-best-sichuan-new-york-6", "name": "The Best Sichuan", "image_url": "https://s3-media2.fl.yelpcdn.com/bphoto/HHeDCT6NAE6Ssk6R3gFBrQ/o.jpg", "is_closed": false, "url": "https://www.yelp.com/biz/the-best-sichuan-new-york-6?adjust_creative=jtr0-h2hTZMxFOWOENvd4Q&utm_campaign=yelp_api_v3&utm_medium=api_v3_business_search&utm_source=jtr0-h2hTZMxFOWOENvd4Q", "review_count": 126, "categories": [{"alias": "szechuan", "title": "Szechuan"}], "rating": 4.5, "coordinates": {"latitude": 40.75266, "longitude": -73.98459}, "transactions": ["delivery", "pickup"], "price": "$$", "location": {"address1": "47 W 39th St", "address2": "", "address3": null, "city": "New York", "zip_code": "10018", "country": "US", "state": "NY", "display_address": ["47 W 39th St", "New York, NY 10018"]}, "phone": "+12128890980", "display_phone": "(212) 889-0980", "distance": 972.3799206494185, "cuisine": "chinese"}, {"id": "p4xNh2NAy85Br77XaomFOw", "alias": "oohu-new-york", "name": "OOHU", "image_url": "https://s3-media4.fl.yelpcdn.com/bphoto/H-1YRNcl0ctmHyNjorSesA/o.jpg", "is_closed": false, "url": "https://www.yelp.com/biz/oohu-new-york?adjust_creative=jtr0-h2hTZMxFOWOENvd4Q&utm_campaign=yelp_api_v3&utm_medium=api_v3_business_search&utm_source=jtr0-h2hTZMxFOWOENvd4Q", "review_count": 33, "categories": [{"alias": "szechuan", "title": "Szechuan"}, {"alias": "cantonese", "title": "Cantonese"}, {"alias": "seafood", "title": "Seafood"}], "rating": 4.5, "coordinates": {"latitude": 40.751493955047785, "longitude": -73.9883517}, "transactions": ["delivery", "pickup"], "price": "$$", "location": {"address1": "128 W 36th St", "address2": "", "address3": null, "city": "New York", "zip_code": "10018", "country": "US", "state": "NY", "display_address": ["128 W 36th St", "New York, NY 10018"]}, "phone": "+12125758899", "display_phone": "(212) 575-8899", "distance": 1276.2819746521077, "cuisine": "chinese"}, {"id": "oJ6fy4fBv_3WskxH4NfNBg", "alias": "chef-huang-jian-bing-and-peking-duck-new-york", "name": "Chef Huang Jian Bing & Peking Duck", "image_url": "https://s3-media1.fl.yelpcdn.com/bphoto/X0bnrN80tDyucd9bjWcTtA/o.jpg", "is_closed": false, "url": "https://www.yelp.com/biz/chef-huang-jian-bing-and-peking-duck-new-york?adjust_creative=jtr0-h2hTZMxFOWOENvd4Q&utm_campaign=yelp_api_v3&utm_medium=api_v3_business_search&utm_source=jtr0-h2hTZMxFOWOENvd4Q", "review_count": 75, "categories": [{"alias": "cantonese", "title": "Cantonese"}], "rating": 4.5, "coordinates": {"latitude": 40.74531205210646, "longitude": -73.9757772}, "transactions": ["restaurant_reservation", "pickup"], "location": {"address1": "635 2nd Ave", "address2": "", "address3": null, "city": "New York", "zip_code": "10016", "country": "US", "state": "NY", "display_address": ["635 2nd Ave", "New York, NY 10016"]}, "phone": "+16469186065", "display_phone": "(646) 918-6065", "distance": 1672.9209589431255, "cuisine": "chinese"}, {"id": "wDuf4Qz9qsC62amLZgWNJQ", "alias": "little-alley-new-york", "name": "Little Alley", "image_url": "https://s3-media2.fl.yelpcdn.com/bphoto/YgboZ55f3R6cxa_gO7BVHQ/o.jpg", "is_closed": false, "url": "https://www.yelp.com/biz/little-alley-new-york?adjust_creative=jtr0-h2hTZMxFOWOENvd4Q&utm_campaign=yelp_api_v3&utm_medium=api_v3_business_search&utm_source=jtr0-h2hTZMxFOWOENvd4Q", "review_count": 534, "categories": [{"alias": "shanghainese", "title": "Shanghainese"}], "rating": 4.0, "coordinates": {"latitude": 40.74744, "longitude": -73.97728}, "transactions": ["delivery", "pickup"], "price": "$$", "location": {"address1": "550 3rd Ave", "address2": null, "address3": "", "city": "New York", "zip_code": "10016", "country": "US", "state": "NY", "display_address": ["550 3rd Ave", "New York, NY 10016"]}, "phone": "+16469983976", "display_phone": "(646) 998-3976", "distance": 1425.680172797434, "cuisine": "chinese"}, {"id": "uaFHoq-a5XqxF-bsOK9_Qg", "alias": "real-kung-fu-little-steamed-buns-ramen-new-york-2", "name": "Real Kung Fu Little Steamed Buns Ramen", "image_url": "https://s3-media4.fl.yelpcdn.com/bphoto/IqEh8wN9nggxWsWUxqtkyQ/o.jpg", "is_closed": false, "url": "https://www.yelp.com/biz/real-kung-fu-little-steamed-buns-ramen-new-york-2?adjust_creative=jtr0-h2hTZMxFOWOENvd4Q&utm_campaign=yelp_api_v3&utm_medium=api_v3_business_search&utm_source=jtr0-h2hTZMxFOWOENvd4Q", "review_count": 1153, "categories": [{"alias": "chinese", "title": "Chinese"}, {"alias": "ramen", "title": "Ramen"}], "rating": 4.0, "coordinates": {"latitude": 40.7616286634162, "longitude": -73.98688}, "transactions": ["delivery", "pickup"], "price": "$$", "location": {"address1": "811 8th Ave", "address2": "", "address3": "", "city": "New York", "zip_code": "10019", "country": "US", "state": "NY", "display_address": ["811 8th Ave", "New York, NY 10019"]}, "phone": "+19173882555", "display_phone": "(917) 388-2555", "distance": 723.0574011342844, "cuisine": "chinese"}, {"id": "HR_a2QSA_KJZIakufAJUmg", "alias": "szechuan-gourmet-new-york-13", "name": "Szechuan Gourmet", "image_url": "https://s3-media3.fl.yelpcdn.com/bphoto/Nr4eeyh5SOWTjZ2kBXcmvg/o.jpg", "is_closed": false, "url": "https://www.yelp.com/biz/szechuan-gourmet-new-york-13?adjust_creative=jtr0-h2hTZMxFOWOENvd4Q&utm_campaign=yelp_api_v3&utm_medium=api_v3_business_search&utm_source=jtr0-h2hTZMxFOWOENvd4Q", "review_count": 65, "categories": [{"alias": "szechuan", "title": "Szechuan"}], "rating": 4.5, "coordinates": {"latitude": 40.752347, "longitude": -73.983559}, "transactions": ["delivery", "pickup"], "location": {"address1": "21 W 39th St", "address2": "", "address3": null, "city": "New York", "zip_code": "10018", "country": "US", "state": "NY", "display_address": ["21 W 39th St", "New York, NY 10018"]}, "phone": "+12129210233", "display_phone": "(212) 921-0233", "distance": 973.1123397949871, "cuisine": "chinese"}, {"id": "GuzlMBKNoClNx5I1-x-DDg", "alias": "53-nyc-new-york", "name": "53 NYC", "image_url": "https://s3-media3.fl.yelpcdn.com/bphoto/NtAcdqUTunURwtVNm0ULIA/o.jpg", "is_closed": false, "url": "https://www.yelp.com/biz/53-nyc-new-york?adjust_creative=jtr0-h2hTZMxFOWOENvd4Q&utm_campaign=yelp_api_v3&utm_medium=api_v3_business_search&utm_source=jtr0-h2hTZMxFOWOENvd4Q", "review_count": 114, "categories": [{"alias": "asianfusion", "title": "Asian Fusion"}, {"alias": "bars", "title": "Bars"}, {"alias": "seafood", "title": "Seafood"}], "rating": 4.0, "coordinates": {"latitude": 40.76179318437133, "longitude": -73.9780863}, "transactions": [], "price": "$$$$", "location": {"address1": "53 W 53rd St", "address2": null, "address3": "", "city": "New York", "zip_code": "10019", "country": "US", "state": "NY", "display_address": ["53 W 53rd St", "New York, NY 10019"]}, "phone": "+16465353994", "display_phone": "(646) 535-3994", "distance": 178.92730813115645, "cuisine": "chinese"}, {"id": "nI1UYDCYUTt23TpGxqnLKg", "alias": "buddakan-new-york", "name": "Buddakan", "image_url": "https://s3-media4.fl.yelpcdn.com/bphoto/JJ6WiHxZmX3gKyllSteBmA/o.jpg", "is_closed": false, "url": "https://www.yelp.com/biz/buddakan-new-york?adjust_creative=jtr0-h2hTZMxFOWOENvd4Q&utm_campaign=yelp_api_v3&utm_medium=api_v3_business_search&utm_source=jtr0-h2hTZMxFOWOENvd4Q", "review_count": 4567, "categories": [{"alias": "chinese", "title": "Chinese"}, {"alias": "bars", "title": "Bars"}, {"alias": "asianfusion", "title": "Asian Fusion"}], "rating": 4.0, "coordinates": {"latitude": 40.7422762672197, "longitude": -74.0048000961542}, "transactions": ["delivery", "pickup"], "price": "$$$$", "location": {"address1": "75 9th Ave", "address2": null, "address3": "", "city": "New York", "zip_code": "10011", "country": "US", "state": "NY", "display_address": ["75 9th Ave", "New York, NY 10011"]}, "phone": "+12129896699", "display_phone": "(212) 989-6699", "distance": 2981.0496048609193, "cuisine": "chinese"}, {"id": "LT0yyLNM84EiJj9DL0rfHA", "alias": "hui-restaurant-and-bar-new-york", "name": "Hui Restaurant & Bar", "image_url": "https://s3-media1.fl.yelpcdn.com/bphoto/9iWT7Jekk7AAW3ZoIvRPhQ/o.jpg", "is_closed": false, "url": "https://www.yelp.com/biz/hui-restaurant-and-bar-new-york?adjust_creative=jtr0-h2hTZMxFOWOENvd4Q&utm_campaign=yelp_api_v3&utm_medium=api_v3_business_search&utm_source=jtr0-h2hTZMxFOWOENvd4Q", "review_count": 288, "categories": [{"alias": "bars", "title": "Bars"}, {"alias": "szechuan", "title": "Szechuan"}, {"alias": "dimsum", "title": "Dim Sum"}], "rating": 4.5, "coordinates": {"latitude": 40.76701, "longitude": -73.95846}, "transactions": ["restaurant_reservation", "delivery", "pickup"], "price": "$$", "location": {"address1": "314 E 70th St", "address2": "", "address3": null, "city": "New York", "zip_code": "10021", "country": "US", "state": "NY", "display_address": ["314 E 70th St", "New York, NY 10021"]}, "phone": "+16468690339", "display_phone": "(646) 869-0339", "distance": 1840.1312272535458, "cuisine": "chinese"}, {"id": "TzhAlljC_843JO7UDDUIaQ", "alias": "the-tang-upper-west-side-new-york", "name": "The Tang - Upper West Side", "image_url": "https://s3-media1.fl.yelpcdn.com/bphoto/Ev1tfA47l90QTWYVqbf9LA/o.jpg", "is_closed": false, "url": "https://www.yelp.com/biz/the-tang-upper-west-side-new-york?adjust_creative=jtr0-h2hTZMxFOWOENvd4Q&utm_campaign=yelp_api_v3&utm_medium=api_v3_business_search&utm_source=jtr0-h2hTZMxFOWOENvd4Q", "review_count": 306, "categories": [{"alias": "noodles", "title": "Noodles"}, {"alias": "szechuan", "title": "Szechuan"}, {"alias": "dimsum", "title": "Dim Sum"}], "rating": 4.5, "coordinates": {"latitude": 40.80006, "longitude": -73.96639}, "transactions": ["delivery", "pickup"], "price": "$$", "location": {"address1": "920 Amsterdam Ave", "address2": null, "address3": "", "city": "New York", "zip_code": "10025", "country": "US", "state": "NY", "display_address": ["920 Amsterdam Ave", "New York, NY 10025"]}, "phone": "+16465967970", "display_phone": "(646) 596-7970", "distance": 4538.220225016991, "cuisine": "chinese"}, {"id": "qrncvjkiKN5Z-JC06ygy6A", "alias": "hutong-new-york", "name": "Hutong New York", "image_url": "https://s3-media1.fl.yelpcdn.com/bphoto/B2TjoWb9waQRRFsSj3q-bw/o.jpg", "is_closed": false, "url": "https://www.yelp.com/biz/hutong-new-york?adjust_creative=jtr0-h2hTZMxFOWOENvd4Q&utm_campaign=yelp_api_v3&utm_medium=api_v3_business_search&utm_source=jtr0-h2hTZMxFOWOENvd4Q", "review_count": 536, "categories": [{"alias": "dimsum", "title": "Dim Sum"}, {"alias": "cocktailbars", "title": "Cocktail Bars"}, {"alias": "breakfast_brunch", "title": "Breakfast & Brunch"}], "rating": 3.5, "coordinates": {"latitude": 40.761551, "longitude": -73.967443}, "transactions": ["delivery", "pickup"], "price": "$$$$", "location": {"address1": "Inside Beacon Courtyard", "address2": "", "address3": "", "city": "New York", "zip_code": "10022", "country": "US", "state": "NY", "display_address": ["Inside Beacon Courtyard", "New York, NY 10022"]}, "phone": "+12127584800", "display_phone": "(212) 758-4800", "distance": 943.0658249784433, "cuisine": "chinese"}, {"id": "sBCJYLPNJuagg-aJ3Y_ozQ", "alias": "cheli-new-york-6", "name": "Cheli", "image_url": "https://s3-media1.fl.yelpcdn.com/bphoto/qaeKZswu1pdHO49tiB92GA/o.jpg", "is_closed": false, "url": "https://www.yelp.com/biz/cheli-new-york-6?adjust_creative=jtr0-h2hTZMxFOWOENvd4Q&utm_campaign=yelp_api_v3&utm_medium=api_v3_business_search&utm_source=jtr0-h2hTZMxFOWOENvd4Q", "review_count": 327, "categories": [{"alias": "shanghainese", "title": "Shanghainese"}], "rating": 4.0, "coordinates": {"latitude": 40.72925, "longitude": -73.9886}, "transactions": ["delivery", "pickup"], "location": {"address1": "19 St Marks Pl", "address2": "Ste 23", "address3": null, "city": "New York", "zip_code": "10003", "country": "US", "state": "NY", "display_address": ["19 St Marks Pl", "Ste 23", "New York, NY 10003"]}, "phone": "+16468581866", "display_phone": "(646) 858-1866", "distance": 3555.7559567497888, "cuisine": "chinese"}, {"id": "pBNMZp_tKCAfRNx7-ybcHQ", "alias": "calle-dao-chelsea-new-york-3", "name": "Calle Dao Chelsea", "image_url": "https://s3-media1.fl.yelpcdn.com/bphoto/OI1LX38k0O11bu0ZLVZFaQ/o.jpg", "is_closed": false, "url": "https://www.yelp.com/biz/calle-dao-chelsea-new-york-3?adjust_creative=jtr0-h2hTZMxFOWOENvd4Q&utm_campaign=yelp_api_v3&utm_medium=api_v3_business_search&utm_source=jtr0-h2hTZMxFOWOENvd4Q", "review_count": 1047, "categories": [{"alias": "cuban", "title": "Cuban"}, {"alias": "chinese", "title": "Chinese"}, {"alias": "asianfusion", "title": "Asian Fusion"}], "rating": 4.5, "coordinates": {"latitude": 40.74765439999999, "longitude": -74.00352547055276}, "transactions": ["delivery", "pickup"], "price": "$$", "location": {"address1": "461 W 23rd St", "address2": "", "address3": null, "city": "New York", "zip_code": "10011", "country": "US", "state": "NY", "display_address": ["461 W 23rd St", "New York, NY 10011"]}, "phone": "+12124144104", "display_phone": "(212) 414-4104", "distance": 2528.6369818802164, "cuisine": "chinese"}, {"id": "qGgQMVExGERqGhZNDM2ROg", "alias": "wu-liang-ye-new-york", "name": "Wu Liang Ye", "image_url": "https://s3-media2.fl.yelpcdn.com/bphoto/q0AwfgkDMt8qT44z53M1ew/o.jpg", "is_closed": false, "url": "https://www.yelp.com/biz/wu-liang-ye-new-york?adjust_creative=jtr0-h2hTZMxFOWOENvd4Q&utm_campaign=yelp_api_v3&utm_medium=api_v3_business_search&utm_source=jtr0-h2hTZMxFOWOENvd4Q", "review_count": 565, "categories": [{"alias": "szechuan", "title": "Szechuan"}], "rating": 3.5, "coordinates": {"latitude": 40.75781, "longitude": -73.97994}, "transactions": ["delivery", "pickup"], "price": "$$", "location": {"address1": "36 W 48th St", "address2": "", "address3": "", "city": "New York", "zip_code": "10036", "country": "US", "state": "NY", "display_address": ["36 W 48th St", "New York, NY 10036"]}, "phone": "+12123982308", "display_phone": "(212) 398-2308", "distance": 290.85541567850277, "cuisine": "chinese"}, {"id": "1jAB_uaI8-P_wSqOo2S3KQ", "alias": "mazu-szechuan-new-york", "name": "Mazu Szechuan", "image_url": "https://s3-media1.fl.yelpcdn.com/bphoto/8cFEkh35jpLEJ7YNM1uOkg/o.jpg", "is_closed": false, "url": "https://www.yelp.com/biz/mazu-szechuan-new-york?adjust_creative=jtr0-h2hTZMxFOWOENvd4Q&utm_campaign=yelp_api_v3&utm_medium=api_v3_business_search&utm_source=jtr0-h2hTZMxFOWOENvd4Q", "review_count": 126, "categories": [{"alias": "szechuan", "title": "Szechuan"}, {"alias": "dimsum", "title": "Dim Sum"}, {"alias": "wine_bars", "title": "Wine Bars"}], "rating": 4.5, "coordinates": {"latitude": 40.745234, "longitude": -73.97812}, "transactions": ["restaurant_reservation", "delivery", "pickup"], "price": "$$", "location": {"address1": "495 3rd Ave", "address2": null, "address3": "", "city": "New York", "zip_code": "10016", "country": "US", "state": "NY", "display_address": ["495 3rd Ave", "New York, NY 10016"]}, "phone": "+16466093388", "display_phone": "(646) 609-3388", "distance": 1662.9303920540224, "cuisine": "chinese"}, {"id": "mUl0wtO7tPkBocuJqZ-7Dw", "alias": "dun-huang-grand-central-new-york-4", "name": "Dun Huang -  Grand Central", "image_url": "https://s3-media2.fl.yelpcdn.com/bphoto/TmMr0NikR2kI8TXBHZ7qJw/o.jpg", "is_closed": false, "url": "https://www.yelp.com/biz/dun-huang-grand-central-new-york-4?adjust_creative=jtr0-h2hTZMxFOWOENvd4Q&utm_campaign=yelp_api_v3&utm_medium=api_v3_business_search&utm_source=jtr0-h2hTZMxFOWOENvd4Q", "review_count": 327, "categories": [{"alias": "chinese", "title": "Chinese"}, {"alias": "noodles", "title": "Noodles"}], "rating": 4.5, "coordinates": {"latitude": 40.74922, "longitude": -73.97785}, "transactions": ["delivery", "pickup"], "price": "$$", "location": {"address1": "320 Lexington Ave", "address2": null, "address3": null, "city": "New York", "zip_code": "10016", "country": "US", "state": "NY", "display_address": ["320 Lexington Ave", "New York, NY 10016"]}, "phone": "+16469644007", "display_phone": "(646) 964-4007", "distance": 1216.9569903216795, "cuisine": "chinese"}, {"id": "UK1oGbr8GU2rufpnJR4-HQ", "alias": "joes-home-of-soup-dumplings-new-york", "name": "Joe's Home of Soup Dumplings", "image_url": "https://s3-media3.fl.yelpcdn.com/bphoto/MdcCoAKlW3RTSSQInj-YcQ/o.jpg", "is_closed": false, "url": "https://www.yelp.com/biz/joes-home-of-soup-dumplings-new-york?adjust_creative=jtr0-h2hTZMxFOWOENvd4Q&utm_campaign=yelp_api_v3&utm_medium=api_v3_business_search&utm_source=jtr0-h2hTZMxFOWOENvd4Q", "review_count": 494, "categories": [{"alias": "shanghainese", "title": "Shanghainese"}, {"alias": "noodles", "title": "Noodles"}], "rating": 4.5, "coordinates": {"latitude": 40.75723, "longitude": -73.97702}, "transactions": ["delivery", "pickup"], "price": "$$", "location": {"address1": "7 E 48th St", "address2": "between Fifth and Madison avenues", "address3": null, "city": "New York", "zip_code": "10017", "country": "US", "state": "NY", "display_address": ["7 E 48th St", "between Fifth and Madison avenues", "New York, NY 10017"]}, "phone": "+12123333868", "display_phone": "(212) 333-3868", "distance": 355.5171787228652, "cuisine": "chinese"}, {"id": "M-4J09S14mPsH1EJrnR1Og", "alias": "yemen-chuanchuan-\u723a\u4eec\u4e32\u4e32-\u7237\u4eec\u4e32\u4e32-new-york", "name": "Yemen chuanchuan \u723a\u4eec\u4e32\u4e32 \u7237\u4eec\u4e32\u4e32", "image_url": "https://s3-media2.fl.yelpcdn.com/bphoto/qN1CVFYlSHzNoHUuIvIXeA/o.jpg", "is_closed": false, "url": "https://www.yelp.com/biz/yemen-chuanchuan-%E7%88%BA%E4%BB%AC%E4%B8%B2%E4%B8%B2-%E7%88%B7%E4%BB%AC%E4%B8%B2%E4%B8%B2-new-york?adjust_creative=jtr0-h2hTZMxFOWOENvd4Q&utm_campaign=yelp_api_v3&utm_medium=api_v3_business_search&utm_source=jtr0-h2hTZMxFOWOENvd4Q", "review_count": 20, "categories": [{"alias": "szechuan", "title": "Szechuan"}, {"alias": "hotpot", "title": "Hot Pot"}], "rating": 4.0, "coordinates": {"latitude": 40.745733, "longitude": -73.99132}, "transactions": [], "location": {"address1": "105 W27 St", "address2": null, "address3": "", "city": "New York", "zip_code": "10001", "country": "US", "state": "NY", "display_address": ["105 W27 St", "New York, NY 10001"]}, "phone": "+16464764935", "display_phone": "(646) 476-4935", "distance": 1932.5798145111478, "cuisine": "chinese"}, {"id": "XaEFFUabnbH8ZF7ccmSAlQ", "alias": "south-of-the-clouds-new-york", "name": "South Of The Clouds", "image_url": "https://s3-media2.fl.yelpcdn.com/bphoto/9izKhzqYb9dkTMkEuMxFxQ/o.jpg", "is_closed": false, "url": "https://www.yelp.com/biz/south-of-the-clouds-new-york?adjust_creative=jtr0-h2hTZMxFOWOENvd4Q&utm_campaign=yelp_api_v3&utm_medium=api_v3_business_search&utm_source=jtr0-h2hTZMxFOWOENvd4Q", "review_count": 251, "categories": [{"alias": "chinese", "title": "Chinese"}, {"alias": "noodles", "title": "Noodles"}, {"alias": "desserts", "title": "Desserts"}], "rating": 4.0, "coordinates": {"latitude": 40.73264, "longitude": -73.99752}, "transactions": ["delivery", "pickup"], "price": "$$", "location": {"address1": "16 W 8th St", "address2": null, "address3": "", "city": "New York", "zip_code": "10011", "country": "US", "state": "NY", "display_address": ["16 W 8th St", "New York, NY 10011"]}, "phone": "+12128889653", "display_phone": "(212) 888-9653", "distance": 3462.8403885736666, "cuisine": "chinese"}, {"id": "ICNwlgXTrvFrGvaScUp8Ew", "alias": "for-u-new-york", "name": "For U", "image_url": "https://s3-media1.fl.yelpcdn.com/bphoto/pOYLMJQ_RzRyuhh7vFG4mQ/o.jpg", "is_closed": false, "url": "https://www.yelp.com/biz/for-u-new-york?adjust_creative=jtr0-h2hTZMxFOWOENvd4Q&utm_campaign=yelp_api_v3&utm_medium=api_v3_business_search&utm_source=jtr0-h2hTZMxFOWOENvd4Q", "review_count": 14, "categories": [{"alias": "dimsum", "title": "Dim Sum"}, {"alias": "szechuan", "title": "Szechuan"}, {"alias": "asianfusion", "title": "Asian Fusion"}], "rating": 5.0, "coordinates": {"latitude": 40.73415, "longitude": -73.98633}, "transactions": ["restaurant_reservation", "delivery", "pickup"], "location": {"address1": "155 3rd Ave", "address2": "", "address3": "", "city": "New York", "zip_code": "10003", "country": "US", "state": "NY", "display_address": ["155 3rd Ave", "New York, NY 10003"]}, "phone": "+16468223530", "display_phone": "(646) 822-3530", "distance": 2965.652535054596, "cuisine": "chinese"}, {"id": "M-odQWSEfsR2mVEw7nKG-g", "alias": "nyonya-new-york", "name": "Nyonya", "image_url": "https://s3-media2.fl.yelpcdn.com/bphoto/YuWC1Gwo7ku4PvD-7mDQnA/o.jpg", "is_closed": false, "url": "https://www.yelp.com/biz/nyonya-new-york?adjust_creative=jtr0-h2hTZMxFOWOENvd4Q&utm_campaign=yelp_api_v3&utm_medium=api_v3_business_search&utm_source=jtr0-h2hTZMxFOWOENvd4Q", "review_count": 2379, "categories": [{"alias": "malaysian", "title": "Malaysian"}, {"alias": "chinese", "title": "Chinese"}], "rating": 4.0, "coordinates": {"latitude": 40.719116974367, "longitude": -73.9968322948353}, "transactions": ["delivery"], "price": "$$", "location": {"address1": "199 Grand St", "address2": "", "address3": "", "city": "New York", "zip_code": "10013", "country": "US", "state": "NY", "display_address": ["199 Grand St", "New York, NY 10013"]}, "phone": "+12123343669", "display_phone": "(212) 334-3669", "distance": 4829.812464098136, "cuisine": "chinese"}, {"id": "sfsjk1h50ooC2ioY7m48gw", "alias": "pig-heaven-new-york-3", "name": "Pig Heaven", "image_url": "https://s3-media2.fl.yelpcdn.com/bphoto/YzHJPPxM5m6qp_vwfrC6SA/o.jpg", "is_closed": false, "url": "https://www.yelp.com/biz/pig-heaven-new-york-3?adjust_creative=jtr0-h2hTZMxFOWOENvd4Q&utm_campaign=yelp_api_v3&utm_medium=api_v3_business_search&utm_source=jtr0-h2hTZMxFOWOENvd4Q", "review_count": 501, "categories": [{"alias": "bbq", "title": "Barbeque"}, {"alias": "szechuan", "title": "Szechuan"}, {"alias": "dimsum", "title": "Dim Sum"}], "rating": 4.0, "coordinates": {"latitude": 40.77544, "longitude": -73.95686}, "transactions": ["delivery", "pickup"], "price": "$$", "location": {"address1": "1420 3rd Ave", "address2": "", "address3": "", "city": "New York", "zip_code": "10028", "country": "US", "state": "NY", "display_address": ["1420 3rd Ave", "New York, NY 10028"]}, "phone": "+12127444333", "display_phone": "(212) 744-4333", "distance": 2489.5030051234776, "cuisine": "chinese"}, {"id": "gNGxh97n0NZgYG1Q_no9Kg", "alias": "potluck-club-new-york-2", "name": "Potluck Club", "image_url": "https://s3-media2.fl.yelpcdn.com/bphoto/QbhMWgf2hTjoPjBcjMc_eA/o.jpg", "is_closed": false, "url": "https://www.yelp.com/biz/potluck-club-new-york-2?adjust_creative=jtr0-h2hTZMxFOWOENvd4Q&utm_campaign=yelp_api_v3&utm_medium=api_v3_business_search&utm_source=jtr0-h2hTZMxFOWOENvd4Q", "review_count": 240, "categories": [{"alias": "chinese", "title": "Chinese"}], "rating": 4.5, "coordinates": {"latitude": 40.71952, "longitude": -73.99333}, "transactions": ["delivery", "pickup"], "location": {"address1": "133 Chrystie St", "address2": null, "address3": "", "city": "New York", "zip_code": "10002", "country": "US", "state": "NY", "display_address": ["133 Chrystie St", "New York, NY 10002"]}, "phone": "", "display_phone": "", "distance": 4691.521432033729, "cuisine": "chinese"}, {"id": "-lgNzAEyFr8LCTuBTWnAMg", "alias": "dim-sum-palace-new-york-7", "name": "Dim Sum Palace", "image_url": "https://s3-media3.fl.yelpcdn.com/bphoto/AhPbs37lnFTvB_FCbUI3NA/o.jpg", "is_closed": false, "url": "https://www.yelp.com/biz/dim-sum-palace-new-york-7?adjust_creative=jtr0-h2hTZMxFOWOENvd4Q&utm_campaign=yelp_api_v3&utm_medium=api_v3_business_search&utm_source=jtr0-h2hTZMxFOWOENvd4Q", "review_count": 461, "categories": [{"alias": "dimsum", "title": "Dim Sum"}, {"alias": "seafood", "title": "Seafood"}, {"alias": "cantonese", "title": "Cantonese"}], "rating": 4.0, "coordinates": {"latitude": 40.762765496672955, "longitude": -73.97609185077448}, "transactions": ["delivery", "pickup"], "price": "$$", "location": {"address1": "28 W 56th St", "address2": null, "address3": "", "city": "New York", "zip_code": "10019", "country": "US", "state": "NY", "display_address": ["28 W 56th St", "New York, NY 10019"]}, "phone": "+16466093966", "display_phone": "(646) 609-3966", "distance": 348.68974628233815, "cuisine": "chinese"}, {"id": "croh2zWlbPyCQTNS11klcg", "alias": "china-river-\u5ddd\u805a\u9662-new-york-3", "name": "China River \u5ddd\u805a\u9662", "image_url": "https://s3-media4.fl.yelpcdn.com/bphoto/P0lNJJARUudFGaWDL__fmQ/o.jpg", "is_closed": false, "url": "https://www.yelp.com/biz/china-river-%E5%B7%9D%E8%81%9A%E9%99%A2-new-york-3?adjust_creative=jtr0-h2hTZMxFOWOENvd4Q&utm_campaign=yelp_api_v3&utm_medium=api_v3_business_search&utm_source=jtr0-h2hTZMxFOWOENvd4Q", "review_count": 281, "categories": [{"alias": "szechuan", "title": "Szechuan"}, {"alias": "dimsum", "title": "Dim Sum"}], "rating": 4.0, "coordinates": {"latitude": 40.75821, "longitude": -73.98833}, "transactions": ["delivery", "pickup"], "price": "$$", "location": {"address1": "258 W 44th St", "address2": null, "address3": "", "city": "New York", "zip_code": "10036", "country": "US", "state": "NY", "display_address": ["258 W 44th St", "New York, NY 10036"]}, "phone": "+16467670854", "display_phone": "(646) 767-0854", "distance": 862.883867221904, "cuisine": "chinese"}, {"id": "oe8GEFE4QLFAKt87y7zcgA", "alias": "very-fresh-noodles-new-york", "name": "Very Fresh Noodles", "image_url": "https://s3-media2.fl.yelpcdn.com/bphoto/gRqfWsSDep7gFKGE4lChBQ/o.jpg", "is_closed": false, "url": "https://www.yelp.com/biz/very-fresh-noodles-new-york?adjust_creative=jtr0-h2hTZMxFOWOENvd4Q&utm_campaign=yelp_api_v3&utm_medium=api_v3_business_search&utm_source=jtr0-h2hTZMxFOWOENvd4Q", "review_count": 1459, "categories": [{"alias": "taiwanese", "title": "Taiwanese"}, {"alias": "chinese", "title": "Chinese"}, {"alias": "noodles", "title": "Noodles"}], "rating": 4.5, "coordinates": {"latitude": 40.74207, "longitude": -74.00565}, "transactions": ["delivery", "pickup"], "price": "$$", "location": {"address1": "409 W 15th St", "address2": null, "address3": "", "city": "New York", "zip_code": "10011", "country": "US", "state": "NY", "display_address": ["409 W 15th St", "New York, NY 10011"]}, "phone": "+13322156161", "display_phone": "(332) 215-6161", "distance": 3049.2994710005573, "cuisine": "chinese"}, {"id": "6YehBdKHcLDsvaewhcEjFQ", "alias": "hey-yuet-new-york", "name": "Hey Yuet", "image_url": "https://s3-media2.fl.yelpcdn.com/bphoto/byR4wTPgJGp32VZ67Hsf8Q/o.jpg", "is_closed": false, "url": "https://www.yelp.com/biz/hey-yuet-new-york?adjust_creative=jtr0-h2hTZMxFOWOENvd4Q&utm_campaign=yelp_api_v3&utm_medium=api_v3_business_search&utm_source=jtr0-h2hTZMxFOWOENvd4Q", "review_count": 209, "categories": [{"alias": "dimsum", "title": "Dim Sum"}, {"alias": "cantonese", "title": "Cantonese"}], "rating": 4.5, "coordinates": {"latitude": 40.747241, "longitude": -73.996441}, "transactions": ["delivery", "pickup"], "price": "$$", "location": {"address1": "251 W 26th St", "address2": null, "address3": "", "city": "New York", "zip_code": "10001", "country": "US", "state": "NY", "display_address": ["251 W 26th St", "New York, NY 10001"]}, "phone": "+16469984196", "display_phone": "(646) 998-4196", "distance": 2092.6211897994967, "cuisine": "chinese"}, {"id": "x0k5kFArHLijdY8-NEQ7Xg", "alias": "bengal-tiger-indian-food-new-york", "name": "Bengal Tiger Indian Food", "image_url": "https://s3-media2.fl.yelpcdn.com/bphoto/65Q6vtiAqLDVFLrvu0ZdZA/o.jpg", "is_closed": false, "url": "https://www.yelp.com/biz/bengal-tiger-indian-food-new-york?adjust_creative=jtr0-h2hTZMxFOWOENvd4Q&utm_campaign=yelp_api_v3&utm_medium=api_v3_business_search&utm_source=jtr0-h2hTZMxFOWOENvd4Q", "review_count": 2329, "categories": [{"alias": "indpak", "title": "Indian"}], "rating": 4.5, "coordinates": {"latitude": 40.763167, "longitude": -73.977131}, "transactions": ["delivery", "pickup"], "price": "$$", "location": {"address1": "58 W 56th St", "address2": "Fl 2", "address3": "", "city": "New York", "zip_code": "10019", "country": "US", "state": "NY", "display_address": ["58 W 56th St", "Fl 2", "New York, NY 10019"]}, "phone": "+12122652703", "display_phone": "(212) 265-2703", "distance": 347.92812342067185, "cuisine": "indian"}, {"id": "Xqk91WuhMeYS4pedccUYgA", "alias": "gazab-new-york", "name": "Gazab", "image_url": "https://s3-media3.fl.yelpcdn.com/bphoto/AuOMEQT6_UKD95-jNcYDLA/o.jpg", "is_closed": false, "url": "https://www.yelp.com/biz/gazab-new-york?adjust_creative=jtr0-h2hTZMxFOWOENvd4Q&utm_campaign=yelp_api_v3&utm_medium=api_v3_business_search&utm_source=jtr0-h2hTZMxFOWOENvd4Q", "review_count": 255, "categories": [{"alias": "indpak", "title": "Indian"}], "rating": 4.5, "coordinates": {"latitude": 40.72191, "longitude": -73.98666}, "transactions": ["delivery", "pickup"], "location": {"address1": "179 Essex St", "address2": "", "address3": null, "city": "New York", "zip_code": "10002", "country": "US", "state": "NY", "display_address": ["179 Essex St", "New York, NY 10002"]}, "phone": "+19173882664", "display_phone": "(917) 388-2664", "distance": 4313.1401359991, "cuisine": "indian"}, {"id": "1_pK5aQ47atF50oAKHADhA", "alias": "indian-accent-new-york", "name": "Indian Accent", "image_url": "https://s3-media2.fl.yelpcdn.com/bphoto/tnHSNwNMyTQVFgKtybK9SA/o.jpg", "is_closed": false, "url": "https://www.yelp.com/biz/indian-accent-new-york?adjust_creative=jtr0-h2hTZMxFOWOENvd4Q&utm_campaign=yelp_api_v3&utm_medium=api_v3_business_search&utm_source=jtr0-h2hTZMxFOWOENvd4Q", "review_count": 716, "categories": [{"alias": "indpak", "title": "Indian"}], "rating": 4.5, "coordinates": {"latitude": 40.7643344624229, "longitude": -73.9787312885132}, "transactions": ["delivery", "pickup"], "price": "$$$$", "location": {"address1": "123 W 56th St", "address2": "", "address3": "", "city": "New York", "zip_code": "10019", "country": "US", "state": "NY", "display_address": ["123 W 56th St", "New York, NY 10019"]}, "phone": "+12128428070", "display_phone": "(212) 842-8070", "distance": 458.4854192654005, "cuisine": "indian"}, {"id": "z2VXX7wGl8XZ6_oo9W3koA", "alias": "patiala-indian-grill-new-york", "name": "Patiala Indian Grill", "image_url": "https://s3-media2.fl.yelpcdn.com/bphoto/cFmz8IrIG6JtI6FN87ULZQ/o.jpg", "is_closed": false, "url": "https://www.yelp.com/biz/patiala-indian-grill-new-york?adjust_creative=jtr0-h2hTZMxFOWOENvd4Q&utm_campaign=yelp_api_v3&utm_medium=api_v3_business_search&utm_source=jtr0-h2hTZMxFOWOENvd4Q", "review_count": 624, "categories": [{"alias": "indpak", "title": "Indian"}], "rating": 4.5, "coordinates": {"latitude": 40.7534700430117, "longitude": -73.99595067259492}, "transactions": ["delivery", "pickup"], "price": "$$", "location": {"address1": "371 W 34th St", "address2": "", "address3": "", "city": "New York", "zip_code": "10001", "country": "US", "state": "NY", "display_address": ["371 W 34th St", "New York, NY 10001"]}, "phone": "+12125648255", "display_phone": "(212) 564-8255", "distance": 1650.1055071003714, "cuisine": "indian"}, {"id": "jf3JRaxUYU93x8LFU-8gkA", "alias": "gupshup-new-york", "name": "GupShup", "image_url": "https://s3-media2.fl.yelpcdn.com/bphoto/zaK7en1p1L6ipl5eyxIXpw/o.jpg", "is_closed": false, "url": "https://www.yelp.com/biz/gupshup-new-york?adjust_creative=jtr0-h2hTZMxFOWOENvd4Q&utm_campaign=yelp_api_v3&utm_medium=api_v3_business_search&utm_source=jtr0-h2hTZMxFOWOENvd4Q", "review_count": 689, "categories": [{"alias": "indpak", "title": "Indian"}, {"alias": "cocktailbars", "title": "Cocktail Bars"}, {"alias": "breakfast_brunch", "title": "Breakfast & Brunch"}], "rating": 4.0, "coordinates": {"latitude": 40.7368323318866, "longitude": -73.9877132715179}, "transactions": ["delivery", "pickup"], "price": "$$$", "location": {"address1": "115 E18th St", "address2": null, "address3": "", "city": "New York", "zip_code": "10003", "country": "US", "state": "NY", "display_address": ["115 E18th St", "New York, NY 10003"]}, "phone": "+12125187313", "display_phone": "(212) 518-7313", "distance": 2706.2069672546704, "cuisine": "indian"}, {"id": "HEs6llkn3wIP1ATXeIZQew", "alias": "pippali-new-york", "name": "Pippali", "image_url": "https://s3-media1.fl.yelpcdn.com/bphoto/B9NtMkxa0e6CT_vk16k32w/o.jpg", "is_closed": false, "url": "https://www.yelp.com/biz/pippali-new-york?adjust_creative=jtr0-h2hTZMxFOWOENvd4Q&utm_campaign=yelp_api_v3&utm_medium=api_v3_business_search&utm_source=jtr0-h2hTZMxFOWOENvd4Q", "review_count": 897, "categories": [{"alias": "indpak", "title": "Indian"}], "rating": 4.0, "coordinates": {"latitude": 40.74233, "longitude": -73.98331}, "transactions": ["delivery", "pickup", "restaurant_reservation"], "price": "$$", "location": {"address1": "129 E 27th St", "address2": "", "address3": "", "city": "New York", "zip_code": "10016", "country": "US", "state": "NY", "display_address": ["129 E 27th St", "New York, NY 10016"]}, "phone": "+12126891999", "display_phone": "(212) 689-1999", "distance": 2027.80061226141, "cuisine": "indian"}, {"id": "objNX6cuj1JyUijFjw21Qw", "alias": "bombay-bistro-new-york-2", "name": "Bombay Bistro", "image_url": "https://s3-media3.fl.yelpcdn.com/bphoto/FBDqyxGA51BZKMAoVr_Raw/o.jpg", "is_closed": false, "url": "https://www.yelp.com/biz/bombay-bistro-new-york-2?adjust_creative=jtr0-h2hTZMxFOWOENvd4Q&utm_campaign=yelp_api_v3&utm_medium=api_v3_business_search&utm_source=jtr0-h2hTZMxFOWOENvd4Q", "review_count": 277, "categories": [{"alias": "indpak", "title": "Indian"}, {"alias": "cocktailbars", "title": "Cocktail Bars"}], "rating": 4.5, "coordinates": {"latitude": 40.73136, "longitude": -74.00253}, "transactions": ["delivery", "pickup"], "price": "$$", "location": {"address1": "31 Cornelia St", "address2": "", "address3": null, "city": "New York", "zip_code": "10014", "country": "US", "state": "NY", "display_address": ["31 Cornelia St", "New York, NY 10014"]}, "phone": "+16468503719", "display_phone": "(646) 850-3719", "distance": 3793.7375603213477, "cuisine": "indian"}, {"id": "XLEdQl5s1bO5Iu43W_c96Q", "alias": "muna-new-york-2", "name": "Muna", "image_url": "https://s3-media2.fl.yelpcdn.com/bphoto/NM7mXPWqmNLbkVGB_pWL6w/o.jpg", "is_closed": false, "url": "https://www.yelp.com/biz/muna-new-york-2?adjust_creative=jtr0-h2hTZMxFOWOENvd4Q&utm_campaign=yelp_api_v3&utm_medium=api_v3_business_search&utm_source=jtr0-h2hTZMxFOWOENvd4Q", "review_count": 40, "categories": [{"alias": "himalayan", "title": "Himalayan/Nepalese"}, {"alias": "indpak", "title": "Indian"}], "rating": 4.5, "coordinates": {"latitude": 40.753509, "longitude": -73.973515}, "transactions": ["delivery", "pickup"], "location": {"address1": "152 East 46th St", "address2": null, "address3": "", "city": "New York", "zip_code": "10017", "country": "US", "state": "NY", "display_address": ["152 East 46th St", "New York, NY 10017"]}, "phone": "+16463987960", "display_phone": "(646) 398-7960", "distance": 854.7187286883661, "cuisine": "indian"}, {"id": "kS2CP48K66yL2TwIhUqy_A", "alias": "tamarind-new-york-4", "name": "Tamarind", "image_url": "https://s3-media3.fl.yelpcdn.com/bphoto/0zgXNwL18E52i95zE7CwvQ/o.jpg", "is_closed": false, "url": "https://www.yelp.com/biz/tamarind-new-york-4?adjust_creative=jtr0-h2hTZMxFOWOENvd4Q&utm_campaign=yelp_api_v3&utm_medium=api_v3_business_search&utm_source=jtr0-h2hTZMxFOWOENvd4Q", "review_count": 1133, "categories": [{"alias": "indpak", "title": "Indian"}], "rating": 4.0, "coordinates": {"latitude": 40.71909, "longitude": -74.00892}, "transactions": ["delivery", "pickup"], "price": "$$$", "location": {"address1": "99 Hudson St", "address2": "", "address3": "", "city": "New York", "zip_code": "10013", "country": "US", "state": "NY", "display_address": ["99 Hudson St", "New York, NY 10013"]}, "phone": "+12127759000", "display_phone": "(212) 775-9000", "distance": 5249.920396267827, "cuisine": "indian"}, {"id": "7VIUu8ay754GoUYEpsmxOA", "alias": "jazba-new-york", "name": "Jazba", "image_url": "https://s3-media3.fl.yelpcdn.com/bphoto/a9UeMhlytkIrH5syPG0Gww/o.jpg", "is_closed": false, "url": "https://www.yelp.com/biz/jazba-new-york?adjust_creative=jtr0-h2hTZMxFOWOENvd4Q&utm_campaign=yelp_api_v3&utm_medium=api_v3_business_search&utm_source=jtr0-h2hTZMxFOWOENvd4Q", "review_count": 9, "categories": [{"alias": "indpak", "title": "Indian"}], "rating": 5.0, "coordinates": {"latitude": 40.731701, "longitude": -73.98585}, "transactions": ["delivery", "pickup"], "location": {"address1": "207 2nd Ave", "address2": "", "address3": null, "city": "New York", "zip_code": "10003", "country": "US", "state": "NY", "display_address": ["207 2nd Ave", "New York, NY 10003"]}, "phone": "+16468613343", "display_phone": "(646) 861-3343", "distance": 3230.1848088259835, "cuisine": "indian"}, {"id": "jSMfV_e4Jh1DKoCnngOiQQ", "alias": "gulaabo-new-york", "name": "Gulaabo", "image_url": "https://s3-media3.fl.yelpcdn.com/bphoto/ruECsMejVh_66DxxA-9lpA/o.jpg", "is_closed": false, "url": "https://www.yelp.com/biz/gulaabo-new-york?adjust_creative=jtr0-h2hTZMxFOWOENvd4Q&utm_campaign=yelp_api_v3&utm_medium=api_v3_business_search&utm_source=jtr0-h2hTZMxFOWOENvd4Q", "review_count": 17, "categories": [{"alias": "indpak", "title": "Indian"}], "rating": 4.0, "coordinates": {"latitude": 40.759859, "longitude": -73.986707}, "transactions": [], "location": {"address1": "250 W 47th St", "address2": null, "address3": "", "city": "New York", "zip_code": "10036", "country": "US", "state": "NY", "display_address": ["250 W 47th St", "New York, NY 10036"]}, "phone": "+16466698261", "display_phone": "(646) 669-8261", "distance": 692.0316902354754, "cuisine": "indian"}, {"id": "ut-560tVcs2g-ZU0Y_qqHQ", "alias": "saar-indian-bistro-new-york", "name": "Saar Indian Bistro", "image_url": "https://s3-media4.fl.yelpcdn.com/bphoto/9r8vQTeTT_27_Tv3gz5ZJw/o.jpg", "is_closed": false, "url": "https://www.yelp.com/biz/saar-indian-bistro-new-york?adjust_creative=jtr0-h2hTZMxFOWOENvd4Q&utm_campaign=yelp_api_v3&utm_medium=api_v3_business_search&utm_source=jtr0-h2hTZMxFOWOENvd4Q", "review_count": 397, "categories": [{"alias": "indpak", "title": "Indian"}], "rating": 4.5, "coordinates": {"latitude": 40.7626659, "longitude": -73.9847093}, "transactions": ["delivery", "pickup"], "price": "$$", "location": {"address1": "241 W 51st St", "address2": "", "address3": null, "city": "New York", "zip_code": "10019", "country": "US", "state": "NY", "display_address": ["241 W 51st St", "New York, NY 10019"]}, "phone": "+16466092142", "display_phone": "(646) 609-2142", "distance": 598.7188422073039, "cuisine": "indian"}, {"id": "jYhbUh1TV7SCfPxjIhVpcg", "alias": "baar-baar-new-york-2", "name": "Baar Baar", "image_url": "https://s3-media2.fl.yelpcdn.com/bphoto/QOh0iMXy-09xT50juVxYnw/o.jpg", "is_closed": false, "url": "https://www.yelp.com/biz/baar-baar-new-york-2?adjust_creative=jtr0-h2hTZMxFOWOENvd4Q&utm_campaign=yelp_api_v3&utm_medium=api_v3_business_search&utm_source=jtr0-h2hTZMxFOWOENvd4Q", "review_count": 1237, "categories": [{"alias": "gastropubs", "title": "Gastropubs"}, {"alias": "indpak", "title": "Indian"}, {"alias": "cocktailbars", "title": "Cocktail Bars"}], "rating": 4.0, "coordinates": {"latitude": 40.7244378855031, "longitude": -73.9915524}, "transactions": ["delivery", "pickup"], "price": "$$$", "location": {"address1": "13 E 1st St", "address2": "", "address3": "", "city": "New York", "zip_code": "10003", "country": "US", "state": "NY", "display_address": ["13 E 1st St", "New York, NY 10003"]}, "phone": "+12122281200", "display_phone": "(212) 228-1200", "distance": 4127.388685405502, "cuisine": "indian"}, {"id": "9pMhRYYgV7E9L7pzECtJKA", "alias": "the-drunken-munkey-ues-new-york", "name": "The Drunken Munkey - UES", "image_url": "https://s3-media3.fl.yelpcdn.com/bphoto/GNYXuGP2q-hHPR-vJXivDw/o.jpg", "is_closed": false, "url": "https://www.yelp.com/biz/the-drunken-munkey-ues-new-york?adjust_creative=jtr0-h2hTZMxFOWOENvd4Q&utm_campaign=yelp_api_v3&utm_medium=api_v3_business_search&utm_source=jtr0-h2hTZMxFOWOENvd4Q", "review_count": 1352, "categories": [{"alias": "indpak", "title": "Indian"}, {"alias": "cocktailbars", "title": "Cocktail Bars"}], "rating": 4.5, "coordinates": {"latitude": 40.78098, "longitude": -73.94751}, "transactions": ["delivery", "pickup", "restaurant_reservation"], "price": "$$", "location": {"address1": "338 E 92nd St", "address2": null, "address3": "", "city": "New York", "zip_code": "10128", "country": "US", "state": "NY", "display_address": ["338 E 92nd St", "New York, NY 10128"]}, "phone": "+16468468986", "display_phone": "(646) 846-8986", "distance": 3466.9693248006906, "cuisine": "indian"}, {"id": "Txm8KtUh9Mn2E7980jTr5g", "alias": "dhamaka-new-york", "name": "Dhamaka", "image_url": "https://s3-media1.fl.yelpcdn.com/bphoto/-Sp5A0npkHkp1aq-2lrcUg/o.jpg", "is_closed": false, "url": "https://www.yelp.com/biz/dhamaka-new-york?adjust_creative=jtr0-h2hTZMxFOWOENvd4Q&utm_campaign=yelp_api_v3&utm_medium=api_v3_business_search&utm_source=jtr0-h2hTZMxFOWOENvd4Q", "review_count": 435, "categories": [{"alias": "indpak", "title": "Indian"}], "rating": 4.0, "coordinates": {"latitude": 40.7180658, "longitude": -73.9881304}, "transactions": ["delivery"], "price": "$$$", "location": {"address1": "119 Delancey St", "address2": "Essex Market, Store  34", "address3": null, "city": "New York", "zip_code": "10002", "country": "US", "state": "NY", "display_address": ["119 Delancey St", "Essex Market, Store  34", "New York, NY 10002"]}, "phone": "+12122048616", "display_phone": "(212) 204-8616", "distance": 4756.470541125975, "cuisine": "indian"}, {"id": "QqrEF8_ZQCGi63cL10J5oA", "alias": "chola-new-york-3", "name": "Chola", "image_url": "https://s3-media2.fl.yelpcdn.com/bphoto/sES9shU8nbErVX_saLRRgA/o.jpg", "is_closed": false, "url": "https://www.yelp.com/biz/chola-new-york-3?adjust_creative=jtr0-h2hTZMxFOWOENvd4Q&utm_campaign=yelp_api_v3&utm_medium=api_v3_business_search&utm_source=jtr0-h2hTZMxFOWOENvd4Q", "review_count": 676, "categories": [{"alias": "indpak", "title": "Indian"}, {"alias": "soup", "title": "Soup"}, {"alias": "seafood", "title": "Seafood"}], "rating": 4.0, "coordinates": {"latitude": 40.76016, "longitude": -73.96582}, "transactions": ["delivery", "pickup"], "price": "$$", "location": {"address1": "232 E 58th St", "address2": "", "address3": "", "city": "New York", "zip_code": "10022", "country": "US", "state": "NY", "display_address": ["232 E 58th St", "New York, NY 10022"]}, "phone": "+12126884619", "display_phone": "(212) 688-4619", "distance": 1066.9492963124237, "cuisine": "indian"}, {"id": "xWVHj2XNcxEg79Nkb5Zb6Q", "alias": "semma-new-york-2", "name": "Semma", "image_url": "https://s3-media3.fl.yelpcdn.com/bphoto/pZpL-NIOCw2P_pXXA8JLCw/o.jpg", "is_closed": false, "url": "https://www.yelp.com/biz/semma-new-york-2?adjust_creative=jtr0-h2hTZMxFOWOENvd4Q&utm_campaign=yelp_api_v3&utm_medium=api_v3_business_search&utm_source=jtr0-h2hTZMxFOWOENvd4Q", "review_count": 349, "categories": [{"alias": "indpak", "title": "Indian"}, {"alias": "wine_bars", "title": "Wine Bars"}, {"alias": "cocktailbars", "title": "Cocktail Bars"}], "rating": 4.0, "coordinates": {"latitude": 40.736054206102615, "longitude": -74.0005639}, "transactions": [], "price": "$$$$", "location": {"address1": "60 Greenwich Ave", "address2": "", "address3": null, "city": "New York", "zip_code": "10011", "country": "US", "state": "NY", "display_address": ["60 Greenwich Ave", "New York, NY 10011"]}, "phone": "+12123738900", "display_phone": "(212) 373-8900", "distance": 3266.8038740954275, "cuisine": "indian"}, {"id": "5UowQyu8tSljomOP-VL7NA", "alias": "tribhaanga-new-york", "name": "Tribhaanga", "image_url": "https://s3-media1.fl.yelpcdn.com/bphoto/M4R_wKL-dqJ--EtkKta7sw/o.jpg", "is_closed": false, "url": "https://www.yelp.com/biz/tribhaanga-new-york?adjust_creative=jtr0-h2hTZMxFOWOENvd4Q&utm_campaign=yelp_api_v3&utm_medium=api_v3_business_search&utm_source=jtr0-h2hTZMxFOWOENvd4Q", "review_count": 61, "categories": [{"alias": "indpak", "title": "Indian"}, {"alias": "asianfusion", "title": "Asian Fusion"}, {"alias": "himalayan", "title": "Himalayan/Nepalese"}], "rating": 4.5, "coordinates": {"latitude": 40.765496, "longitude": -73.982754}, "transactions": ["delivery", "pickup", "restaurant_reservation"], "location": {"address1": "234 W 56th St", "address2": "Fl 1", "address3": "", "city": "New York", "zip_code": "10019", "country": "US", "state": "NY", "display_address": ["234 W 56th St", "Fl 1", "New York, NY 10019"]}, "phone": "+12125862403", "display_phone": "(212) 586-2403", "distance": 688.1300851525369, "cuisine": "indian"}, {"id": "iLjrQvbUYPj6NLkalyau0w", "alias": "hyderabadi-zaiqa-new-york", "name": "Hyderabadi Zaiqa", "image_url": "https://s3-media3.fl.yelpcdn.com/bphoto/sG74aCYBUFba0tFD9-8iEg/o.jpg", "is_closed": false, "url": "https://www.yelp.com/biz/hyderabadi-zaiqa-new-york?adjust_creative=jtr0-h2hTZMxFOWOENvd4Q&utm_campaign=yelp_api_v3&utm_medium=api_v3_business_search&utm_source=jtr0-h2hTZMxFOWOENvd4Q", "review_count": 25, "categories": [{"alias": "desserts", "title": "Desserts"}, {"alias": "juicebars", "title": "Juice Bars & Smoothies"}, {"alias": "indpak", "title": "Indian"}], "rating": 5.0, "coordinates": {"latitude": 40.76439568665357, "longitude": -73.9876243}, "transactions": ["delivery", "pickup"], "location": {"address1": "366 W 52 St", "address2": "", "address3": "", "city": "New York", "zip_code": "10019", "country": "US", "state": "NY", "display_address": ["366 W 52 St", "New York, NY 10019"]}, "phone": "+16469520066", "display_phone": "(646) 952-0066", "distance": 898.1110805548673, "cuisine": "indian"}, {"id": "m5Whyz8O8jM4DrE808h71g", "alias": "darbar-grill-new-york", "name": "Darbar Grill", "image_url": "https://s3-media2.fl.yelpcdn.com/bphoto/9rN41wJJx8ic1fxNMnaslA/o.jpg", "is_closed": false, "url": "https://www.yelp.com/biz/darbar-grill-new-york?adjust_creative=jtr0-h2hTZMxFOWOENvd4Q&utm_campaign=yelp_api_v3&utm_medium=api_v3_business_search&utm_source=jtr0-h2hTZMxFOWOENvd4Q", "review_count": 588, "categories": [{"alias": "indpak", "title": "Indian"}, {"alias": "wine_bars", "title": "Wine Bars"}, {"alias": "catering", "title": "Caterers"}], "rating": 4.0, "coordinates": {"latitude": 40.759357, "longitude": -73.968826}, "transactions": ["delivery", "pickup", "restaurant_reservation"], "price": "$$", "location": {"address1": "157 E 55th St", "address2": "", "address3": "", "city": "New York", "zip_code": "10022", "country": "US", "state": "NY", "display_address": ["157 E 55th St", "New York, NY 10022"]}, "phone": "+12127514600", "display_phone": "(212) 751-4600", "distance": 820.3876268523629, "cuisine": "indian"}, {"id": "izRJeBfDQYJmd6ibIQ6Mfg", "alias": "mughlai-indian-cuisine-new-york-4", "name": "Mughlai Indian Cuisine", "image_url": "https://s3-media4.fl.yelpcdn.com/bphoto/pY33lEN22h9TnvJxaKJSVg/o.jpg", "is_closed": false, "url": "https://www.yelp.com/biz/mughlai-indian-cuisine-new-york-4?adjust_creative=jtr0-h2hTZMxFOWOENvd4Q&utm_campaign=yelp_api_v3&utm_medium=api_v3_business_search&utm_source=jtr0-h2hTZMxFOWOENvd4Q", "review_count": 623, "categories": [{"alias": "indpak", "title": "Indian"}], "rating": 4.5, "coordinates": {"latitude": 40.78002, "longitude": -73.94978}, "transactions": ["delivery", "pickup"], "price": "$$", "location": {"address1": "1724 2nd Ave", "address2": "", "address3": "", "city": "New York", "zip_code": "10128", "country": "US", "state": "NY", "display_address": ["1724 2nd Ave", "New York, NY 10128"]}, "phone": "+12127226262", "display_phone": "(212) 722-6262", "distance": 3269.3045513976203, "cuisine": "indian"}, {"id": "qhXIW0LDT4XsoN2IE6dZHg", "alias": "ahimsa-new-york-5", "name": "Ahimsa", "image_url": "https://s3-media2.fl.yelpcdn.com/bphoto/5seQWNcu8rGqYXf_EBUC8g/o.jpg", "is_closed": false, "url": "https://www.yelp.com/biz/ahimsa-new-york-5?adjust_creative=jtr0-h2hTZMxFOWOENvd4Q&utm_campaign=yelp_api_v3&utm_medium=api_v3_business_search&utm_source=jtr0-h2hTZMxFOWOENvd4Q", "review_count": 218, "categories": [{"alias": "indpak", "title": "Indian"}, {"alias": "vegetarian", "title": "Vegetarian"}, {"alias": "kosher", "title": "Kosher"}], "rating": 4.5, "coordinates": {"latitude": 40.7478959, "longitude": -73.9758638}, "transactions": ["delivery", "pickup"], "price": "$$", "location": {"address1": "204 E 38th St", "address2": "", "address3": null, "city": "New York", "zip_code": "10016", "country": "US", "state": "NY", "display_address": ["204 E 38th St", "New York, NY 10016"]}, "phone": "+12122282022", "display_phone": "(212) 228-2022", "distance": 1387.696124211735, "cuisine": "indian"}, {"id": "t6PzD4uzBOfyCLcd_lT8cQ", "alias": "sathi-new-york", "name": "Sathi", "image_url": "https://s3-media2.fl.yelpcdn.com/bphoto/Dn6S00Ly7iatO434EMPqCw/o.jpg", "is_closed": false, "url": "https://www.yelp.com/biz/sathi-new-york?adjust_creative=jtr0-h2hTZMxFOWOENvd4Q&utm_campaign=yelp_api_v3&utm_medium=api_v3_business_search&utm_source=jtr0-h2hTZMxFOWOENvd4Q", "review_count": 295, "categories": [{"alias": "indpak", "title": "Indian"}, {"alias": "himalayan", "title": "Himalayan/Nepalese"}], "rating": 4.5, "coordinates": {"latitude": 40.73621, "longitude": -73.98528}, "transactions": ["pickup", "delivery", "restaurant_reservation"], "price": "$$", "location": {"address1": "216 3rd Ave", "address2": null, "address3": "", "city": "New York", "zip_code": "10003", "country": "US", "state": "NY", "display_address": ["216 3rd Ave", "New York, NY 10003"]}, "phone": "+12122603700", "display_phone": "(212) 260-3700", "distance": 2724.959030045109, "cuisine": "indian"}, {"id": "ZikqL-flwV2XYlKtL2UfmA", "alias": "rangoli-exquisite-indian-cuisine-new-york", "name": "Rangoli Exquisite Indian Cuisine", "image_url": "https://s3-media3.fl.yelpcdn.com/bphoto/rd_Ia0dX3hwDTVigLjCuTA/o.jpg", "is_closed": false, "url": "https://www.yelp.com/biz/rangoli-exquisite-indian-cuisine-new-york?adjust_creative=jtr0-h2hTZMxFOWOENvd4Q&utm_campaign=yelp_api_v3&utm_medium=api_v3_business_search&utm_source=jtr0-h2hTZMxFOWOENvd4Q", "review_count": 513, "categories": [{"alias": "indpak", "title": "Indian"}], "rating": 4.5, "coordinates": {"latitude": 40.7693, "longitude": -73.95823}, "transactions": ["delivery", "pickup"], "price": "$$", "location": {"address1": "1393 A 2nd Ave", "address2": "", "address3": "", "city": "New York", "zip_code": "10021", "country": "US", "state": "NY", "display_address": ["1393 A 2nd Ave", "New York, NY 10021"]}, "phone": "+12126283800", "display_phone": "(212) 628-3800", "distance": 1980.7092510171008, "cuisine": "indian"}, {"id": "_7BGw3YFNOTzP1Www3zB7g", "alias": "mughlai-grill-new-york", "name": "Mughlai Grill", "image_url": "https://s3-media3.fl.yelpcdn.com/bphoto/R0MIGOkyV5I4sDlZLRVK3A/o.jpg", "is_closed": false, "url": "https://www.yelp.com/biz/mughlai-grill-new-york?adjust_creative=jtr0-h2hTZMxFOWOENvd4Q&utm_campaign=yelp_api_v3&utm_medium=api_v3_business_search&utm_source=jtr0-h2hTZMxFOWOENvd4Q", "review_count": 531, "categories": [{"alias": "indpak", "title": "Indian"}], "rating": 4.5, "coordinates": {"latitude": 40.7210905, "longitude": -73.9840446}, "transactions": ["delivery", "pickup", "restaurant_reservation"], "price": "$$", "location": {"address1": "6 Clinton St", "address2": "", "address3": null, "city": "New York", "zip_code": "10002", "country": "US", "state": "NY", "display_address": ["6 Clinton St", "New York, NY 10002"]}, "phone": "+12125332828", "display_phone": "(212) 533-2828", "distance": 4375.434923240767, "cuisine": "indian"}, {"id": "RARUAVWONyRQovr0D6TGQg", "alias": "baazi-new-york-2", "name": "Baazi", "image_url": "https://s3-media3.fl.yelpcdn.com/bphoto/GcGYn5V-88IFV0C3ku40nw/o.jpg", "is_closed": false, "url": "https://www.yelp.com/biz/baazi-new-york-2?adjust_creative=jtr0-h2hTZMxFOWOENvd4Q&utm_campaign=yelp_api_v3&utm_medium=api_v3_business_search&utm_source=jtr0-h2hTZMxFOWOENvd4Q", "review_count": 71, "categories": [{"alias": "indpak", "title": "Indian"}], "rating": 4.0, "coordinates": {"latitude": 40.7955035, "longitude": -73.9708505}, "transactions": ["delivery", "pickup"], "location": {"address1": "2588 Broadway", "address2": "", "address3": null, "city": "New York", "zip_code": "10025", "country": "US", "state": "NY", "display_address": ["2588 Broadway", "New York, NY 10025"]}, "phone": "+16468613859", "display_phone": "(646) 861-3859", "distance": 3987.0800227226528, "cuisine": "indian"}, {"id": "Q7wFlNr4OFU0eCJXcOmopg", "alias": "bombays-indian-restaurant-new-york", "name": "Bombay's Indian Restaurant", "image_url": "https://s3-media3.fl.yelpcdn.com/bphoto/yKDhC52JC0vMWb2D8X1qTA/o.jpg", "is_closed": false, "url": "https://www.yelp.com/biz/bombays-indian-restaurant-new-york?adjust_creative=jtr0-h2hTZMxFOWOENvd4Q&utm_campaign=yelp_api_v3&utm_medium=api_v3_business_search&utm_source=jtr0-h2hTZMxFOWOENvd4Q", "review_count": 262, "categories": [{"alias": "indpak", "title": "Indian"}], "rating": 3.5, "coordinates": {"latitude": 40.70344, "longitude": -74.01109}, "transactions": ["delivery", "pickup"], "price": "$$", "location": {"address1": "60 Pearl St", "address2": null, "address3": "", "city": "New York", "zip_code": "10004", "country": "US", "state": "NY", "display_address": ["60 Pearl St", "New York, NY 10004"]}, "phone": "+12127422222", "display_phone": "(212) 742-2222", "distance": 6885.36024021797, "cuisine": "indian"}, {"id": "tN37MOvqzrmpU0h0PfoDmw", "alias": "utsav-new-york-3", "name": "Utsav", "image_url": "https://s3-media3.fl.yelpcdn.com/bphoto/23o50wNr5t0oWrcSwqFAuA/o.jpg", "is_closed": false, "url": "https://www.yelp.com/biz/utsav-new-york-3?adjust_creative=jtr0-h2hTZMxFOWOENvd4Q&utm_campaign=yelp_api_v3&utm_medium=api_v3_business_search&utm_source=jtr0-h2hTZMxFOWOENvd4Q", "review_count": 650, "categories": [{"alias": "indpak", "title": "Indian"}, {"alias": "cocktailbars", "title": "Cocktail Bars"}], "rating": 3.5, "coordinates": {"latitude": 40.75787, "longitude": -73.982418}, "transactions": ["delivery", "pickup"], "price": "$$", "location": {"address1": "1185 Avenue Of The Americas Plz", "address2": null, "address3": "", "city": "New York", "zip_code": "10036", "country": "US", "state": "NY", "display_address": ["1185 Avenue Of The Americas Plz", "New York, NY 10036"]}, "phone": "+12125752525", "display_phone": "(212) 575-2525", "distance": 406.32529264239014, "cuisine": "indian"}, {"id": "XKy4Cy4uNgO7rxhH4yFJQQ", "alias": "mughlai-indian-cuisine-new-york-3", "name": "Mughlai Indian Cuisine", "image_url": "https://s3-media3.fl.yelpcdn.com/bphoto/Z2sYUaOOYIWEFHanImNtNQ/o.jpg", "is_closed": false, "url": "https://www.yelp.com/biz/mughlai-indian-cuisine-new-york-3?adjust_creative=jtr0-h2hTZMxFOWOENvd4Q&utm_campaign=yelp_api_v3&utm_medium=api_v3_business_search&utm_source=jtr0-h2hTZMxFOWOENvd4Q", "review_count": 462, "categories": [{"alias": "indpak", "title": "Indian"}], "rating": 4.0, "coordinates": {"latitude": 40.7397599, "longitude": -73.98226}, "transactions": ["delivery", "pickup"], "price": "$$", "location": {"address1": "329 3rd Ave", "address2": null, "address3": "", "city": "New York", "zip_code": "10010", "country": "US", "state": "NY", "display_address": ["329 3rd Ave", "New York, NY 10010"]}, "phone": "+12128890909", "display_phone": "(212) 889-0909", "distance": 2298.043745672266, "cuisine": "indian"}, {"id": "ePn4BwyXeY8NKN-MWSgfrQ", "alias": "kebab-aur-sharab-new-york", "name": "Kebab Aur Sharab", "image_url": "https://s3-media3.fl.yelpcdn.com/bphoto/167g-m8TvaEmb7F3EE9hAQ/o.jpg", "is_closed": false, "url": "https://www.yelp.com/biz/kebab-aur-sharab-new-york?adjust_creative=jtr0-h2hTZMxFOWOENvd4Q&utm_campaign=yelp_api_v3&utm_medium=api_v3_business_search&utm_source=jtr0-h2hTZMxFOWOENvd4Q", "review_count": 88, "categories": [{"alias": "indpak", "title": "Indian"}, {"alias": "kebab", "title": "Kebab"}, {"alias": "cocktailbars", "title": "Cocktail Bars"}], "rating": 4.0, "coordinates": {"latitude": 40.77951, "longitude": -73.98331}, "transactions": [], "location": {"address1": "247 W 72nd St", "address2": null, "address3": "", "city": "New York", "zip_code": "10023", "country": "US", "state": "NY", "display_address": ["247 W 72nd St", "New York, NY 10023"]}, "phone": "+12125405247", "display_phone": "(212) 540-5247", "distance": 2189.908767413801, "cuisine": "indian"}, {"id": "NgD-6ogFGc_c4z5_Ur4k2g", "alias": "dhaba-indian-cuisine-new-york", "name": "Dhaba Indian Cuisine", "image_url": "https://s3-media3.fl.yelpcdn.com/bphoto/RyzHd3tfosxFHBGe-NNnBw/o.jpg", "is_closed": false, "url": "https://www.yelp.com/biz/dhaba-indian-cuisine-new-york?adjust_creative=jtr0-h2hTZMxFOWOENvd4Q&utm_campaign=yelp_api_v3&utm_medium=api_v3_business_search&utm_source=jtr0-h2hTZMxFOWOENvd4Q", "review_count": 1592, "categories": [{"alias": "indpak", "title": "Indian"}, {"alias": "buffets", "title": "Buffets"}], "rating": 3.5, "coordinates": {"latitude": 40.742364, "longitude": -73.982813}, "transactions": ["delivery", "pickup"], "price": "$$", "location": {"address1": "108 Lexington Ave", "address2": "", "address3": null, "city": "New York", "zip_code": "10016", "country": "US", "state": "NY", "display_address": ["108 Lexington Ave", "New York, NY 10016"]}, "phone": "+12126791284", "display_phone": "(212) 679-1284", "distance": 2017.8978602532272, "cuisine": "indian"}, {"id": "_R6EjbrynW_LFnmWoRqgww", "alias": "surya-madam-ji-new-york", "name": "Surya - Madam Ji", "image_url": "https://s3-media2.fl.yelpcdn.com/bphoto/hQVRvDKO8k5z0UD8711ngQ/o.jpg", "is_closed": false, "url": "https://www.yelp.com/biz/surya-madam-ji-new-york?adjust_creative=jtr0-h2hTZMxFOWOENvd4Q&utm_campaign=yelp_api_v3&utm_medium=api_v3_business_search&utm_source=jtr0-h2hTZMxFOWOENvd4Q", "review_count": 294, "categories": [{"alias": "indpak", "title": "Indian"}, {"alias": "cocktailbars", "title": "Cocktail Bars"}, {"alias": "wine_bars", "title": "Wine Bars"}], "rating": 3.5, "coordinates": {"latitude": 40.7281, "longitude": -73.99963}, "transactions": ["delivery", "pickup"], "price": "$$", "location": {"address1": "154 Bleecker St", "address2": "", "address3": "", "city": "New York", "zip_code": "10012", "country": "US", "state": "NY", "display_address": ["154 Bleecker St", "New York, NY 10012"]}, "phone": "+12128751405", "display_phone": "(212) 875-1405", "distance": 3980.592816292275, "cuisine": "indian"}, {"id": "3hlAeWgSKAnSQ1tg8k8D8g", "alias": "alachi-masala-new-york-3", "name": "Alachi Masala", "image_url": "https://s3-media2.fl.yelpcdn.com/bphoto/6h_KJ0SWdJKytw58coTezw/o.jpg", "is_closed": false, "url": "https://www.yelp.com/biz/alachi-masala-new-york-3?adjust_creative=jtr0-h2hTZMxFOWOENvd4Q&utm_campaign=yelp_api_v3&utm_medium=api_v3_business_search&utm_source=jtr0-h2hTZMxFOWOENvd4Q", "review_count": 282, "categories": [{"alias": "indpak", "title": "Indian"}], "rating": 4.0, "coordinates": {"latitude": 40.786196, "longitude": -73.976448}, "transactions": ["delivery", "pickup"], "price": "$", "location": {"address1": "Ave", "address2": "", "address3": "", "city": "New York", "zip_code": "10024", "country": "US", "state": "NY", "display_address": ["Ave", "New York, NY 10024"]}, "phone": "+12128740737", "display_phone": "(212) 874-0737", "distance": 2891.00138593623, "cuisine": "indian"}, {"id": "1KGvtMU7VBcdlvxo2brdQg", "alias": "clove-indian-restaurant-and-bar-new-york", "name": "Clove Indian Restaurant I", "image_url": "https://s3-media3.fl.yelpcdn.com/bphoto/NiQWurdcp_UrSuc8SEV_0Q/o.jpg", "is_closed": false, "url": "https://www.yelp.com/biz/clove-indian-restaurant-and-bar-new-york?adjust_creative=jtr0-h2hTZMxFOWOENvd4Q&utm_campaign=yelp_api_v3&utm_medium=api_v3_business_search&utm_source=jtr0-h2hTZMxFOWOENvd4Q", "review_count": 333, "categories": [{"alias": "indpak", "title": "Indian"}], "rating": 4.0, "coordinates": {"latitude": 40.8212624, "longitude": -73.9506836}, "transactions": ["delivery", "pickup"], "price": "$$", "location": {"address1": "1592 Amsterdam Ave", "address2": "Flr 1", "address3": "", "city": "Manhattan", "zip_code": "10031", "country": "US", "state": "NY", "display_address": ["1592 Amsterdam Ave", "Flr 1", "Manhattan, NY 10031"]}, "phone": "+16469186644", "display_phone": "(646) 918-6644", "distance": 7186.717054214504, "cuisine": "indian"}, {"id": "iXSuNKKUBIrBX7zUerlQDQ", "alias": "benares-new-york-3", "name": "Benares", "image_url": "https://s3-media3.fl.yelpcdn.com/bphoto/02ev2tUDuz86hPhPxMEgFQ/o.jpg", "is_closed": false, "url": "https://www.yelp.com/biz/benares-new-york-3?adjust_creative=jtr0-h2hTZMxFOWOENvd4Q&utm_campaign=yelp_api_v3&utm_medium=api_v3_business_search&utm_source=jtr0-h2hTZMxFOWOENvd4Q", "review_count": 654, "categories": [{"alias": "indpak", "title": "Indian"}], "rating": 4.0, "coordinates": {"latitude": 40.71415, "longitude": -74.009209}, "transactions": ["delivery", "pickup"], "price": "$$", "location": {"address1": "45 Murray St", "address2": "", "address3": null, "city": "New York", "zip_code": "10007", "country": "US", "state": "NY", "display_address": ["45 Murray St", "New York, NY 10007"]}, "phone": "+12127664900", "display_phone": "(212) 766-4900", "distance": 5738.544215349666, "cuisine": "indian"}, {"id": "9MO5UogFuvqAriOA9RlqKA", "alias": "saravana-bhavan-new-york-4", "name": "Saravana Bhavan", "image_url": "https://s3-media1.fl.yelpcdn.com/bphoto/E7ET6SngRlP55AVGlAk99w/o.jpg", "is_closed": false, "url": "https://www.yelp.com/biz/saravana-bhavan-new-york-4?adjust_creative=jtr0-h2hTZMxFOWOENvd4Q&utm_campaign=yelp_api_v3&utm_medium=api_v3_business_search&utm_source=jtr0-h2hTZMxFOWOENvd4Q", "review_count": 9, "categories": [{"alias": "vegetarian", "title": "Vegetarian"}], "rating": 4.0, "coordinates": {"latitude": 40.7038, "longitude": -74.00816}, "transactions": ["delivery", "pickup"], "location": {"address1": "32 Old Slip", "address2": "", "address3": null, "city": "New York", "zip_code": "10005", "country": "US", "state": "NY", "display_address": ["32 Old Slip", "New York, NY 10005"]}, "phone": "+19175133582", "display_phone": "(917) 513-3582", "distance": 6747.5379956594215, "cuisine": "indian"}, {"id": "dOQjniOt57mI9l9CmrCSJQ", "alias": "curry-india-new-york-2", "name": "Curry India", "image_url": "https://s3-media2.fl.yelpcdn.com/bphoto/cWryZLuHmzMueop4FeVbQA/o.jpg", "is_closed": false, "url": "https://www.yelp.com/biz/curry-india-new-york-2?adjust_creative=jtr0-h2hTZMxFOWOENvd4Q&utm_campaign=yelp_api_v3&utm_medium=api_v3_business_search&utm_source=jtr0-h2hTZMxFOWOENvd4Q", "review_count": 194, "categories": [{"alias": "indpak", "title": "Indian"}], "rating": 4.0, "coordinates": {"latitude": 40.76006, "longitude": -73.98306}, "transactions": ["delivery", "pickup"], "price": "$$", "location": {"address1": "148 W 49th St", "address2": "", "address3": null, "city": "New York", "zip_code": "10019", "country": "US", "state": "NY", "display_address": ["148 W 49th St", "New York, NY 10019"]}, "phone": "+19172614902", "display_phone": "(917) 261-4902", "distance": 386.4199420047858, "cuisine": "indian"}, {"id": "5faOK0osoS-zdEwT21S-Cg", "alias": "saravanaa-bhavan-new-york-9", "name": "Saravanaa Bhavan", "image_url": "https://s3-media1.fl.yelpcdn.com/bphoto/dehh9iOIVBqFxthB0Hcm4w/o.jpg", "is_closed": false, "url": "https://www.yelp.com/biz/saravanaa-bhavan-new-york-9?adjust_creative=jtr0-h2hTZMxFOWOENvd4Q&utm_campaign=yelp_api_v3&utm_medium=api_v3_business_search&utm_source=jtr0-h2hTZMxFOWOENvd4Q", "review_count": 409, "categories": [{"alias": "indpak", "title": "Indian"}], "rating": 3.0, "coordinates": {"latitude": 40.7835899, "longitude": -73.97777}, "transactions": ["delivery", "pickup"], "price": "$$", "location": {"address1": "413 Amsterdam Ave", "address2": "", "address3": "", "city": "New York", "zip_code": "10024", "country": "US", "state": "NY", "display_address": ["413 Amsterdam Ave", "New York, NY 10024"]}, "phone": "+12127217755", "display_phone": "(212) 721-7755", "distance": 2595.647575855696, "cuisine": "indian"}, {"id": "u_CnSp9FieAuWqhvCn-A2A", "alias": "spice-mantra-new-york", "name": "Spice Mantra", "image_url": "https://s3-media2.fl.yelpcdn.com/bphoto/2DfwvwTkDnlAdq-bKKiokg/o.jpg", "is_closed": false, "url": "https://www.yelp.com/biz/spice-mantra-new-york?adjust_creative=jtr0-h2hTZMxFOWOENvd4Q&utm_campaign=yelp_api_v3&utm_medium=api_v3_business_search&utm_source=jtr0-h2hTZMxFOWOENvd4Q", "review_count": 81, "categories": [{"alias": "indpak", "title": "Indian"}], "rating": 4.5, "coordinates": {"latitude": 40.75825, "longitude": -73.96633}, "transactions": ["delivery", "pickup"], "location": {"address1": "1047 2nd Ave", "address2": null, "address3": "", "city": "New York", "zip_code": "10022", "country": "US", "state": "NY", "display_address": ["1047 2nd Ave", "New York, NY 10022"]}, "phone": "+12125729900", "display_phone": "(212) 572-9900", "distance": 1041.7046964337137, "cuisine": "indian"}, {"id": "eTzH9lmkmouNlmuJ77i8Ow", "alias": "angaar-new-york-2", "name": "Angaar", "image_url": "https://s3-media2.fl.yelpcdn.com/bphoto/TPwPaaXsFdNVwPLu5XdLRg/o.jpg", "is_closed": false, "url": "https://www.yelp.com/biz/angaar-new-york-2?adjust_creative=jtr0-h2hTZMxFOWOENvd4Q&utm_campaign=yelp_api_v3&utm_medium=api_v3_business_search&utm_source=jtr0-h2hTZMxFOWOENvd4Q", "review_count": 203, "categories": [{"alias": "indpak", "title": "Indian"}], "rating": 4.0, "coordinates": {"latitude": 40.7782, "longitude": -73.97802}, "transactions": ["delivery", "pickup"], "price": "$$", "location": {"address1": "283 Columbus Ave", "address2": "", "address3": null, "city": "New York", "zip_code": "10023", "country": "US", "state": "NY", "display_address": ["283 Columbus Ave", "New York, NY 10023"]}, "phone": "+12123934040", "display_phone": "(212) 393-4040", "distance": 2005.6461524152623, "cuisine": "indian"}, {"id": "DZE4ThXa7d0kSXnR3Hb-kg", "alias": "junoon-new-york", "name": "Junoon", "image_url": "https://s3-media4.fl.yelpcdn.com/bphoto/1ZHmxl-pf7rrwKrdpiv9uA/o.jpg", "is_closed": false, "url": "https://www.yelp.com/biz/junoon-new-york?adjust_creative=jtr0-h2hTZMxFOWOENvd4Q&utm_campaign=yelp_api_v3&utm_medium=api_v3_business_search&utm_source=jtr0-h2hTZMxFOWOENvd4Q", "review_count": 1755, "categories": [{"alias": "indpak", "title": "Indian"}, {"alias": "desserts", "title": "Desserts"}, {"alias": "cocktailbars", "title": "Cocktail Bars"}], "rating": 3.5, "coordinates": {"latitude": 40.74299, "longitude": -73.990462}, "transactions": ["delivery", "pickup"], "price": "$$$$", "location": {"address1": "19 W 24th St", "address2": "", "address3": "", "city": "New York", "zip_code": "10010", "country": "US", "state": "NY", "display_address": ["19 W 24th St", "New York, NY 10010"]}, "phone": "+12124902100", "display_phone": "(212) 490-2100", "distance": 2154.222346065647, "cuisine": "indian"}, {"id": "ECUTH1VOWxZ9GwfzblMKzA", "alias": "mughlai-indian-cuisine-new-york-8", "name": "Mughlai Indian Cuisine", "image_url": "https://s3-media3.fl.yelpcdn.com/bphoto/ACFsnia5tvgQbupV2RFnPw/o.jpg", "is_closed": false, "url": "https://www.yelp.com/biz/mughlai-indian-cuisine-new-york-8?adjust_creative=jtr0-h2hTZMxFOWOENvd4Q&utm_campaign=yelp_api_v3&utm_medium=api_v3_business_search&utm_source=jtr0-h2hTZMxFOWOENvd4Q", "review_count": 177, "categories": [{"alias": "indpak", "title": "Indian"}], "rating": 4.5, "coordinates": {"latitude": 40.765394, "longitude": -73.983272}, "transactions": ["delivery", "pickup"], "price": "$$", "location": {"address1": "255 W 55th St", "address2": null, "address3": "", "city": "New York", "zip_code": "10019", "country": "US", "state": "NY", "display_address": ["255 W 55th St", "New York, NY 10019"]}, "phone": "+16468700555", "display_phone": "(646) 870-0555", "distance": 700.4355602089759, "cuisine": "indian"}, {"id": "u1gdMF6vMCdwCilQ6vgyfw", "alias": "honest-new-york", "name": "Honest", "image_url": "https://s3-media4.fl.yelpcdn.com/bphoto/YjLPopNY7KLzAo_X4PsE3A/o.jpg", "is_closed": false, "url": "https://www.yelp.com/biz/honest-new-york?adjust_creative=jtr0-h2hTZMxFOWOENvd4Q&utm_campaign=yelp_api_v3&utm_medium=api_v3_business_search&utm_source=jtr0-h2hTZMxFOWOENvd4Q", "review_count": 52, "categories": [{"alias": "indpak", "title": "Indian"}], "rating": 4.5, "coordinates": {"latitude": 40.72887, "longitude": -74.00082}, "transactions": ["delivery", "pickup"], "price": "$$", "location": {"address1": "176 Bleecker St", "address2": "", "address3": null, "city": "New York", "zip_code": "10012", "country": "US", "state": "NY", "display_address": ["176 Bleecker St", "New York, NY 10012"]}, "phone": "+19172612610", "display_phone": "(917) 261-2610", "distance": 3963.0488544986074, "cuisine": "indian"}, {"id": "50eKjWOB-H9iuo1ocACOaQ", "alias": "imli-urban-indian-food-new-york-3", "name": "Imli Urban Indian Food", "image_url": "https://s3-media1.fl.yelpcdn.com/bphoto/ITX2Be9adIEnNydLdr4D4A/o.jpg", "is_closed": false, "url": "https://www.yelp.com/biz/imli-urban-indian-food-new-york-3?adjust_creative=jtr0-h2hTZMxFOWOENvd4Q&utm_campaign=yelp_api_v3&utm_medium=api_v3_business_search&utm_source=jtr0-h2hTZMxFOWOENvd4Q", "review_count": 256, "categories": [{"alias": "indpak", "title": "Indian"}, {"alias": "cocktailbars", "title": "Cocktail Bars"}], "rating": 4.5, "coordinates": {"latitude": 40.7616660604253, "longitude": -73.9601389691234}, "transactions": ["delivery", "pickup"], "price": "$$", "location": {"address1": "1136 1st Ave", "address2": "", "address3": "", "city": "New York", "zip_code": "10065", "country": "US", "state": "NY", "display_address": ["1136 1st Ave", "New York, NY 10065"]}, "phone": "+12122560073", "display_phone": "(212) 256-0073", "distance": 1554.8553250962846, "cuisine": "indian"}, {"id": "7USPKYeaAfxl0Ch9j_1l7A", "alias": "moti-mahal-delux-new-york", "name": "Moti Mahal Delux", "image_url": "https://s3-media1.fl.yelpcdn.com/bphoto/AXSKhFwc0WSuGsON2ZYQxw/o.jpg", "is_closed": false, "url": "https://www.yelp.com/biz/moti-mahal-delux-new-york?adjust_creative=jtr0-h2hTZMxFOWOENvd4Q&utm_campaign=yelp_api_v3&utm_medium=api_v3_business_search&utm_source=jtr0-h2hTZMxFOWOENvd4Q", "review_count": 566, "categories": [{"alias": "indpak", "title": "Indian"}], "rating": 4.0, "coordinates": {"latitude": 40.76213, "longitude": -73.9605}, "transactions": ["delivery", "pickup"], "price": "$$", "location": {"address1": "1149 1st Ave", "address2": null, "address3": "", "city": "New York", "zip_code": "10065", "country": "US", "state": "NY", "display_address": ["1149 1st Ave", "New York, NY 10065"]}, "phone": "+12123713535", "display_phone": "(212) 371-3535", "distance": 1540.1475406093275, "cuisine": "indian"}, {"id": "Xl-zlT0NLLiKhym88em22w", "alias": "adda-indian-canteen-long-island-city", "name": "Adda Indian Canteen", "image_url": "https://s3-media3.fl.yelpcdn.com/bphoto/jysFNwbgMKGpBvAGjDVzcw/o.jpg", "is_closed": false, "url": "https://www.yelp.com/biz/adda-indian-canteen-long-island-city?adjust_creative=jtr0-h2hTZMxFOWOENvd4Q&utm_campaign=yelp_api_v3&utm_medium=api_v3_business_search&utm_source=jtr0-h2hTZMxFOWOENvd4Q", "review_count": 568, "categories": [{"alias": "indpak", "title": "Indian"}, {"alias": "halal", "title": "Halal"}], "rating": 4.0, "coordinates": {"latitude": 40.745011, "longitude": -73.934243}, "transactions": ["delivery", "pickup"], "price": "$$", "location": {"address1": "31-31 Thomson Ave", "address2": "", "address3": null, "city": "Long Island City", "zip_code": "11101", "country": "US", "state": "NY", "display_address": ["31-31 Thomson Ave", "Long Island City, NY 11101"]}, "phone": "+17184333888", "display_phone": "(718) 433-3888", "distance": 4093.397668213336, "cuisine": "indian"}, {"id": "raGF9jAO7JOiIbFQ2_bTAg", "alias": "india-at-time-square-new-york", "name": "India at Time Square", "image_url": "https://s3-media4.fl.yelpcdn.com/bphoto/h-76oBHA8MI2aN4U4MGYVw/o.jpg", "is_closed": false, "url": "https://www.yelp.com/biz/india-at-time-square-new-york?adjust_creative=jtr0-h2hTZMxFOWOENvd4Q&utm_campaign=yelp_api_v3&utm_medium=api_v3_business_search&utm_source=jtr0-h2hTZMxFOWOENvd4Q", "review_count": 102, "categories": [{"alias": "indpak", "title": "Indian"}], "rating": 4.5, "coordinates": {"latitude": 40.75941459798258, "longitude": -73.99145881962656}, "transactions": ["delivery", "pickup"], "price": "$$", "location": {"address1": "332 W 44th St", "address2": null, "address3": "", "city": "New York", "zip_code": "10036", "country": "US", "state": "NY", "display_address": ["332 W 44th St", "New York, NY 10036"]}, "phone": "+16464764356", "display_phone": "(646) 476-4356", "distance": 1095.0458264101435, "cuisine": "indian"}, {"id": "JSX6Pk56w4BhgO8eSvCrKg", "alias": "aroqa-new-york", "name": "aRoqa", "image_url": "https://s3-media1.fl.yelpcdn.com/bphoto/VSx5w9dlSIwIgruaHwxJ4w/o.jpg", "is_closed": false, "url": "https://www.yelp.com/biz/aroqa-new-york?adjust_creative=jtr0-h2hTZMxFOWOENvd4Q&utm_campaign=yelp_api_v3&utm_medium=api_v3_business_search&utm_source=jtr0-h2hTZMxFOWOENvd4Q", "review_count": 404, "categories": [{"alias": "indpak", "title": "Indian"}, {"alias": "bars", "title": "Bars"}, {"alias": "tapasmallplates", "title": "Tapas/Small Plates"}], "rating": 4.0, "coordinates": {"latitude": 40.746065, "longitude": -74.001254}, "transactions": ["delivery", "pickup"], "price": "$$", "location": {"address1": "206 9th Ave", "address2": null, "address3": "", "city": "New York", "zip_code": "10011", "country": "US", "state": "NY", "display_address": ["206 9th Ave", "New York, NY 10011"]}, "phone": "+16466785471", "display_phone": "(646) 678-5471", "distance": 2479.7148121306127, "cuisine": "indian"}, {"id": "FXDMFBM-rV2s5MHzA33d2g", "alias": "bombay-grill-house-new-york-3", "name": "Bombay Grill House", "image_url": "https://s3-media3.fl.yelpcdn.com/bphoto/01tH_eOnWGB-GO-lam9mrQ/o.jpg", "is_closed": false, "url": "https://www.yelp.com/biz/bombay-grill-house-new-york-3?adjust_creative=jtr0-h2hTZMxFOWOENvd4Q&utm_campaign=yelp_api_v3&utm_medium=api_v3_business_search&utm_source=jtr0-h2hTZMxFOWOENvd4Q", "review_count": 325, "categories": [{"alias": "indpak", "title": "Indian"}], "rating": 4.0, "coordinates": {"latitude": 40.76421, "longitude": -73.988101}, "transactions": ["delivery", "pickup"], "price": "$$", "location": {"address1": "764 9th Ave", "address2": "", "address3": "", "city": "New York", "zip_code": "10019", "country": "US", "state": "NY", "display_address": ["764 9th Ave", "New York, NY 10019"]}, "phone": "+12129771010", "display_phone": "(212) 977-1010", "distance": 923.3456647075772, "cuisine": "indian"}, {"id": "klAhw3xLQi9GF1tf_HnS7w", "alias": "izakaya-mew-new-york-3", "name": "Izakaya MEW", "image_url": "https://s3-media4.fl.yelpcdn.com/bphoto/452g3hJg1YiWHjFt7TI6aw/o.jpg", "is_closed": false, "url": "https://www.yelp.com/biz/izakaya-mew-new-york-3?adjust_creative=jtr0-h2hTZMxFOWOENvd4Q&utm_campaign=yelp_api_v3&utm_medium=api_v3_business_search&utm_source=jtr0-h2hTZMxFOWOENvd4Q", "review_count": 2875, "categories": [{"alias": "tapas", "title": "Tapas Bars"}, {"alias": "sushi", "title": "Sushi Bars"}, {"alias": "izakaya", "title": "Izakaya"}], "rating": 4.5, "coordinates": {"latitude": 40.750148, "longitude": -73.9863203465939}, "transactions": ["delivery", "pickup"], "price": "$$", "location": {"address1": "53 W 35th St", "address2": "", "address3": "", "city": "New York", "zip_code": "10001", "country": "US", "state": "NY", "display_address": ["53 W 35th St", "New York, NY 10001"]}, "phone": "+16463689384", "display_phone": "(646) 368-9384", "distance": 1298.8043169184014, "cuisine": "japanese"}, {"id": "v8y7NLCC25KY_lSbcs3UPA", "alias": "maison-kintaro-new-york-2", "name": "Maison Kintaro", "image_url": "https://s3-media1.fl.yelpcdn.com/bphoto/RZEvRaQYDNcPjCTKM_E0tg/o.jpg", "is_closed": false, "url": "https://www.yelp.com/biz/maison-kintaro-new-york-2?adjust_creative=jtr0-h2hTZMxFOWOENvd4Q&utm_campaign=yelp_api_v3&utm_medium=api_v3_business_search&utm_source=jtr0-h2hTZMxFOWOENvd4Q", "review_count": 73, "categories": [{"alias": "japanese", "title": "Japanese"}], "rating": 4.5, "coordinates": {"latitude": 40.747442163550275, "longitude": -74.00123431589748}, "transactions": ["delivery", "pickup"], "location": {"address1": "401 W 24th St", "address2": null, "address3": null, "city": "New York", "zip_code": "10011", "country": "US", "state": "NY", "display_address": ["401 W 24th St", "New York, NY 10011"]}, "phone": "+13152304533", "display_phone": "(315) 230-4533", "distance": 2384.140782302289, "cuisine": "japanese"}, {"id": "axqp3pGJXnTLgq2QrPyDyQ", "alias": "benemon-new-york", "name": "Benemon", "image_url": "https://s3-media3.fl.yelpcdn.com/bphoto/5ZRHsFgkyoSzac8ofvhvvg/o.jpg", "is_closed": false, "url": "https://www.yelp.com/biz/benemon-new-york?adjust_creative=jtr0-h2hTZMxFOWOENvd4Q&utm_campaign=yelp_api_v3&utm_medium=api_v3_business_search&utm_source=jtr0-h2hTZMxFOWOENvd4Q", "review_count": 716, "categories": [{"alias": "japanese", "title": "Japanese"}, {"alias": "tapasmallplates", "title": "Tapas/Small Plates"}, {"alias": "cocktailbars", "title": "Cocktail Bars"}], "rating": 4.5, "coordinates": {"latitude": 40.72551, "longitude": -73.98838}, "transactions": ["delivery", "restaurant_reservation", "pickup"], "price": "$$", "location": {"address1": "108 E 4th St", "address2": null, "address3": "", "city": "New York", "zip_code": "10003", "country": "US", "state": "NY", "display_address": ["108 E 4th St", "New York, NY 10003"]}, "phone": "+12126143006", "display_phone": "(212) 614-3006", "distance": 3944.676983069744, "cuisine": "japanese"}, {"id": "6lUsFj0KCao678o9L7QwUw", "alias": "hatsuhana-new-york", "name": "Hatsuhana", "image_url": "https://s3-media2.fl.yelpcdn.com/bphoto/BgU4cogcT7JT9raJ59vlwQ/o.jpg", "is_closed": false, "url": "https://www.yelp.com/biz/hatsuhana-new-york?adjust_creative=jtr0-h2hTZMxFOWOENvd4Q&utm_campaign=yelp_api_v3&utm_medium=api_v3_business_search&utm_source=jtr0-h2hTZMxFOWOENvd4Q", "review_count": 1537, "categories": [{"alias": "japanese", "title": "Japanese"}, {"alias": "sushi", "title": "Sushi Bars"}], "rating": 4.0, "coordinates": {"latitude": 40.75703, "longitude": -73.97692}, "transactions": ["restaurant_reservation", "delivery", "pickup"], "price": "$$$", "location": {"address1": "17 E 48th St", "address2": "", "address3": "", "city": "New York", "zip_code": "10017", "country": "US", "state": "NY", "display_address": ["17 E 48th St", "New York, NY 10017"]}, "phone": "+12123553345", "display_phone": "(212) 355-3345", "distance": 378.1782315166929, "cuisine": "japanese"}, {"id": "FlZ1zdVEKWv7dwqm8Uw8-w", "alias": "raku-new-york-7", "name": "Raku", "image_url": "https://s3-media4.fl.yelpcdn.com/bphoto/GEbZnH1jR4n7D5WOJ3urPg/o.jpg", "is_closed": false, "url": "https://www.yelp.com/biz/raku-new-york-7?adjust_creative=jtr0-h2hTZMxFOWOENvd4Q&utm_campaign=yelp_api_v3&utm_medium=api_v3_business_search&utm_source=jtr0-h2hTZMxFOWOENvd4Q", "review_count": 1574, "categories": [{"alias": "japanese", "title": "Japanese"}, {"alias": "noodles", "title": "Noodles"}], "rating": 4.5, "coordinates": {"latitude": 40.7264988089246, "longitude": -73.9866526052356}, "transactions": ["delivery", "pickup"], "price": "$$", "location": {"address1": "342 E 6th St", "address2": "", "address3": "", "city": "New York", "zip_code": "10003", "country": "US", "state": "NY", "display_address": ["342 E 6th St", "New York, NY 10003"]}, "phone": "+12122281324", "display_phone": "(212) 228-1324", "distance": 3811.4430027214194, "cuisine": "japanese"}, {"id": "OFfZUS-nu6NDnsWe1B2bUQ", "alias": "tonchin-new-york-2", "name": "Tonchin", "image_url": "https://s3-media2.fl.yelpcdn.com/bphoto/BgQKNO97PzwQSsvmAKHIkA/o.jpg", "is_closed": false, "url": "https://www.yelp.com/biz/tonchin-new-york-2?adjust_creative=jtr0-h2hTZMxFOWOENvd4Q&utm_campaign=yelp_api_v3&utm_medium=api_v3_business_search&utm_source=jtr0-h2hTZMxFOWOENvd4Q", "review_count": 1979, "categories": [{"alias": "ramen", "title": "Ramen"}, {"alias": "izakaya", "title": "Izakaya"}, {"alias": "wine_bars", "title": "Wine Bars"}], "rating": 4.5, "coordinates": {"latitude": 40.7502727, "longitude": -73.9844951}, "transactions": ["delivery", "pickup"], "price": "$$", "location": {"address1": "13 W 36th St", "address2": null, "address3": "", "city": "New York", "zip_code": "10018", "country": "US", "state": "NY", "display_address": ["13 W 36th St", "New York, NY 10018"]}, "phone": "+16466929912", "display_phone": "(646) 692-9912", "distance": 1215.3781230832326, "cuisine": "japanese"}, {"id": "7iY35991NhQ1AShJZCNZgA", "alias": "sakagura-new-york", "name": "Sakagura", "image_url": "https://s3-media4.fl.yelpcdn.com/bphoto/UTNso2U3VAiTXdDV98Jbzw/o.jpg", "is_closed": false, "url": "https://www.yelp.com/biz/sakagura-new-york?adjust_creative=jtr0-h2hTZMxFOWOENvd4Q&utm_campaign=yelp_api_v3&utm_medium=api_v3_business_search&utm_source=jtr0-h2hTZMxFOWOENvd4Q", "review_count": 1877, "categories": [{"alias": "japanese", "title": "Japanese"}], "rating": 4.0, "coordinates": {"latitude": 40.7516467024541, "longitude": -73.9729489318165}, "transactions": ["delivery"], "price": "$$$$", "location": {"address1": "211 E 43rd St", "address2": "", "address3": "", "city": "New York", "zip_code": "10017", "country": "US", "state": "NY", "display_address": ["211 E 43rd St", "New York, NY 10017"]}, "phone": "+12129537253", "display_phone": "(212) 953-7253", "distance": 1061.3011139859577, "cuisine": "japanese"}, {"id": "xFp3xSQ43J-i7nmJfNBsZA", "alias": "norikoh-new-york-8", "name": "Norikoh", "image_url": "https://s3-media3.fl.yelpcdn.com/bphoto/DLT5-EvfTq5RNQgybYNDpg/o.jpg", "is_closed": false, "url": "https://www.yelp.com/biz/norikoh-new-york-8?adjust_creative=jtr0-h2hTZMxFOWOENvd4Q&utm_campaign=yelp_api_v3&utm_medium=api_v3_business_search&utm_source=jtr0-h2hTZMxFOWOENvd4Q", "review_count": 679, "categories": [{"alias": "sushi", "title": "Sushi Bars"}, {"alias": "japanese", "title": "Japanese"}], "rating": 4.0, "coordinates": {"latitude": 40.7433, "longitude": -73.99137}, "transactions": ["delivery", "pickup"], "price": "$$", "location": {"address1": "43 W 24th St", "address2": null, "address3": "", "city": "New York", "zip_code": "10010", "country": "US", "state": "NY", "display_address": ["43 W 24th St", "New York, NY 10010"]}, "phone": "+16469227383", "display_phone": "(646) 922-7383", "distance": 2170.3998406049573, "cuisine": "japanese"}, {"id": "eQ4QUGvuHGBzsOrphsVc6A", "alias": "kimura-new-york", "name": "Kimura", "image_url": "https://s3-media3.fl.yelpcdn.com/bphoto/mljczn7werHwgQX7_cF-rA/o.jpg", "is_closed": false, "url": "https://www.yelp.com/biz/kimura-new-york?adjust_creative=jtr0-h2hTZMxFOWOENvd4Q&utm_campaign=yelp_api_v3&utm_medium=api_v3_business_search&utm_source=jtr0-h2hTZMxFOWOENvd4Q", "review_count": 379, "categories": [{"alias": "japanese", "title": "Japanese"}, {"alias": "hotpot", "title": "Hot Pot"}, {"alias": "sushi", "title": "Sushi Bars"}], "rating": 4.5, "coordinates": {"latitude": 40.72904325062745, "longitude": -73.9882174}, "transactions": ["delivery", "pickup"], "price": "$$$", "location": {"address1": "31 St Marks Pl", "address2": null, "address3": "", "city": "New York", "zip_code": "10003", "country": "US", "state": "NY", "display_address": ["31 St Marks Pl", "New York, NY 10003"]}, "phone": "+19179051864", "display_phone": "(917) 905-1864", "distance": 3561.480602390528, "cuisine": "japanese"}, {"id": "YC-wGlO0oOkEIaCEDZv-ag", "alias": "yakitori-totto-new-york", "name": "Yakitori Totto", "image_url": "https://s3-media2.fl.yelpcdn.com/bphoto/z--vn2U2bjlg7Bls1DUB2g/o.jpg", "is_closed": false, "url": "https://www.yelp.com/biz/yakitori-totto-new-york?adjust_creative=jtr0-h2hTZMxFOWOENvd4Q&utm_campaign=yelp_api_v3&utm_medium=api_v3_business_search&utm_source=jtr0-h2hTZMxFOWOENvd4Q", "review_count": 1441, "categories": [{"alias": "japanese", "title": "Japanese"}], "rating": 4.0, "coordinates": {"latitude": 40.765375, "longitude": -73.983114}, "transactions": ["delivery", "pickup"], "price": "$$", "location": {"address1": "251 W 55th St", "address2": "Fl 2", "address3": "", "city": "New York", "zip_code": "10019", "country": "US", "state": "NY", "display_address": ["251 W 55th St", "Fl 2", "New York, NY 10019"]}, "phone": "+12122454555", "display_phone": "(212) 245-4555", "distance": 692.9652189141184, "cuisine": "japanese"}, {"id": "dUfKnUnwaYKciyoRzDBLEw", "alias": "izakaya-nana-flushing", "name": "Izakaya Nana", "image_url": "https://s3-media2.fl.yelpcdn.com/bphoto/uqKmQyRQa-r-MKw1Dip4kw/o.jpg", "is_closed": false, "url": "https://www.yelp.com/biz/izakaya-nana-flushing?adjust_creative=jtr0-h2hTZMxFOWOENvd4Q&utm_campaign=yelp_api_v3&utm_medium=api_v3_business_search&utm_source=jtr0-h2hTZMxFOWOENvd4Q", "review_count": 393, "categories": [{"alias": "izakaya", "title": "Izakaya"}], "rating": 4.5, "coordinates": {"latitude": 40.764116, "longitude": -73.824724}, "transactions": ["delivery", "restaurant_reservation", "pickup"], "price": "$$$", "location": {"address1": "141-26 Northern Blvd", "address2": null, "address3": "", "city": "Flushing", "zip_code": "11354", "country": "US", "state": "NY", "display_address": ["141-26 Northern Blvd", "Flushing, NY 11354"]}, "phone": "+17182696866", "display_phone": "(718) 269-6866", "distance": 12955.201528278525, "cuisine": "japanese"}, {"id": "-J8VuX3wGrYSOBu2G0hMsw", "alias": "katsu-hama-new-york", "name": "Katsu-Hama", "image_url": "https://s3-media3.fl.yelpcdn.com/bphoto/496l921LQRGO5fyZYQQOVA/o.jpg", "is_closed": false, "url": "https://www.yelp.com/biz/katsu-hama-new-york?adjust_creative=jtr0-h2hTZMxFOWOENvd4Q&utm_campaign=yelp_api_v3&utm_medium=api_v3_business_search&utm_source=jtr0-h2hTZMxFOWOENvd4Q", "review_count": 1625, "categories": [{"alias": "japanese", "title": "Japanese"}], "rating": 4.0, "coordinates": {"latitude": 40.75638, "longitude": -73.97759}, "transactions": ["delivery", "pickup"], "price": "$$", "location": {"address1": "11 E 47th St", "address2": "", "address3": "", "city": "New York", "zip_code": "10017", "country": "US", "state": "NY", "display_address": ["11 E 47th St", "New York, NY 10017"]}, "phone": "+12127585909", "display_phone": "(212) 758-5909", "distance": 425.60730387740625, "cuisine": "japanese"}, {"id": "kwq1W0opBnOYKoUXWYyQ5g", "alias": "momokawa-new-york-2", "name": "Momokawa", "image_url": "https://s3-media2.fl.yelpcdn.com/bphoto/GtvNDstFR-_GKs13lQRSCw/o.jpg", "is_closed": false, "url": "https://www.yelp.com/biz/momokawa-new-york-2?adjust_creative=jtr0-h2hTZMxFOWOENvd4Q&utm_campaign=yelp_api_v3&utm_medium=api_v3_business_search&utm_source=jtr0-h2hTZMxFOWOENvd4Q", "review_count": 238, "categories": [{"alias": "japanese", "title": "Japanese"}, {"alias": "sushi", "title": "Sushi Bars"}, {"alias": "hotpot", "title": "Hot Pot"}], "rating": 4.0, "coordinates": {"latitude": 40.77047, "longitude": -73.9537}, "transactions": ["delivery", "pickup"], "price": "$$$", "location": {"address1": "1466 1st Ave", "address2": "", "address3": null, "city": "New York", "zip_code": "10075", "country": "US", "state": "NY", "display_address": ["1466 1st Ave", "New York, NY 10075"]}, "phone": "+12122560403", "display_phone": "(212) 256-0403", "distance": 2378.743980325199, "cuisine": "japanese"}, {"id": "_IkMfWpOkQXRZtJAYJUJIw", "alias": "hama-japanese-cuisine-new-york", "name": "Hama Japanese Cuisine", "image_url": "https://s3-media2.fl.yelpcdn.com/bphoto/3YnpzXHaeugtrc9XqHiF2g/o.jpg", "is_closed": false, "url": "https://www.yelp.com/biz/hama-japanese-cuisine-new-york?adjust_creative=jtr0-h2hTZMxFOWOENvd4Q&utm_campaign=yelp_api_v3&utm_medium=api_v3_business_search&utm_source=jtr0-h2hTZMxFOWOENvd4Q", "review_count": 429, "categories": [{"alias": "sushi", "title": "Sushi Bars"}, {"alias": "japanese", "title": "Japanese"}], "rating": 4.0, "coordinates": {"latitude": 40.7597846984863, "longitude": -73.9776382446289}, "transactions": ["delivery", "restaurant_reservation", "pickup"], "price": "$$", "location": {"address1": "11 W 51st St", "address2": "", "address3": "", "city": "New York", "zip_code": "10019", "country": "US", "state": "NY", "display_address": ["11 W 51st St", "New York, NY 10019"]}, "phone": "+12127577103", "display_phone": "(212) 757-7103", "distance": 86.89110493887978, "cuisine": "japanese"}, {"id": "wjIyCBEpCG_HRp8veiI0YQ", "alias": "ootoya-times-square-new-york-2", "name": "Ootoya Times Square", "image_url": "https://s3-media2.fl.yelpcdn.com/bphoto/kxWPsD6XW9do2ZqviCuheg/o.jpg", "is_closed": false, "url": "https://www.yelp.com/biz/ootoya-times-square-new-york-2?adjust_creative=jtr0-h2hTZMxFOWOENvd4Q&utm_campaign=yelp_api_v3&utm_medium=api_v3_business_search&utm_source=jtr0-h2hTZMxFOWOENvd4Q", "review_count": 1107, "categories": [{"alias": "sushi", "title": "Sushi Bars"}, {"alias": "hotpot", "title": "Hot Pot"}, {"alias": "japacurry", "title": "Japanese Curry"}], "rating": 4.0, "coordinates": {"latitude": 40.754924, "longitude": -73.985945}, "transactions": ["delivery", "pickup"], "price": "$$", "location": {"address1": "141 W 41st St", "address2": "", "address3": "", "city": "New York", "zip_code": "10036", "country": "US", "state": "NY", "display_address": ["141 W 41st St", "New York, NY 10036"]}, "phone": "+12127040833", "display_phone": "(212) 704-0833", "distance": 861.1936095685786, "cuisine": "japanese"}, {"id": "HZWHBfeuP4Fb6y8b8uqnbA", "alias": "sushi-yasaka-new-york", "name": "Sushi Yasaka", "image_url": "https://s3-media4.fl.yelpcdn.com/bphoto/_AXYcM-4epAtPfuDjan4UA/o.jpg", "is_closed": false, "url": "https://www.yelp.com/biz/sushi-yasaka-new-york?adjust_creative=jtr0-h2hTZMxFOWOENvd4Q&utm_campaign=yelp_api_v3&utm_medium=api_v3_business_search&utm_source=jtr0-h2hTZMxFOWOENvd4Q", "review_count": 2021, "categories": [{"alias": "japanese", "title": "Japanese"}, {"alias": "sushi", "title": "Sushi Bars"}], "rating": 4.0, "coordinates": {"latitude": 40.779583, "longitude": -73.983482}, "transactions": ["delivery", "pickup"], "price": "$$", "location": {"address1": "251 W 72nd St", "address2": "", "address3": "", "city": "New York", "zip_code": "10023", "country": "US", "state": "NY", "display_address": ["251 W 72nd St", "New York, NY 10023"]}, "phone": "+12124968460", "display_phone": "(212) 496-8460", "distance": 2194.109769610794, "cuisine": "japanese"}, {"id": "zHsK9YUH3lv8VlQEAPw6gA", "alias": "tabata-new-york-4", "name": "Tabata", "image_url": "https://s3-media1.fl.yelpcdn.com/bphoto/FMvh6-QtKOwaQaGLUMovMg/o.jpg", "is_closed": false, "url": "https://www.yelp.com/biz/tabata-new-york-4?adjust_creative=jtr0-h2hTZMxFOWOENvd4Q&utm_campaign=yelp_api_v3&utm_medium=api_v3_business_search&utm_source=jtr0-h2hTZMxFOWOENvd4Q", "review_count": 30, "categories": [{"alias": "japanese", "title": "Japanese"}, {"alias": "bars", "title": "Bars"}], "rating": 4.5, "coordinates": {"latitude": 40.770684, "longitude": -73.957302}, "transactions": ["delivery", "pickup"], "location": {"address1": "1435 2nd Ave", "address2": null, "address3": "", "city": "New York", "zip_code": "10021", "country": "US", "state": "NY", "display_address": ["1435 2nd Ave", "New York, NY 10021"]}, "phone": "+16468337977", "display_phone": "(646) 833-7977", "distance": 2130.015836418163, "cuisine": "japanese"}, {"id": "cT48RskMO_o35Ua0tlifyQ", "alias": "heno-heno-new-york-2", "name": "Heno Heno", "image_url": "https://s3-media2.fl.yelpcdn.com/bphoto/Mbj3ohufWkWmMIRfejctuw/o.jpg", "is_closed": false, "url": "https://www.yelp.com/biz/heno-heno-new-york-2?adjust_creative=jtr0-h2hTZMxFOWOENvd4Q&utm_campaign=yelp_api_v3&utm_medium=api_v3_business_search&utm_source=jtr0-h2hTZMxFOWOENvd4Q", "review_count": 133, "categories": [{"alias": "izakaya", "title": "Izakaya"}, {"alias": "sushi", "title": "Sushi Bars"}, {"alias": "bars", "title": "Bars"}], "rating": 4.5, "coordinates": {"latitude": 40.760512, "longitude": -73.990117}, "transactions": ["delivery", "restaurant_reservation", "pickup"], "location": {"address1": "358 W 46th St", "address2": null, "address3": "", "city": "New York", "zip_code": "10036", "country": "US", "state": "NY", "display_address": ["358 W 46th St", "New York, NY 10036"]}, "phone": "+16463988008", "display_phone": "(646) 398-8008", "distance": 978.5418396174578, "cuisine": "japanese"}, {"id": "r6r-XK_wL02FQdAgaauTxg", "alias": "kame-new-york-2", "name": "Kame", "image_url": "https://s3-media2.fl.yelpcdn.com/bphoto/UmZ1UXIZHb_2M14uHh3-XA/o.jpg", "is_closed": false, "url": "https://www.yelp.com/biz/kame-new-york-2?adjust_creative=jtr0-h2hTZMxFOWOENvd4Q&utm_campaign=yelp_api_v3&utm_medium=api_v3_business_search&utm_source=jtr0-h2hTZMxFOWOENvd4Q", "review_count": 786, "categories": [{"alias": "ramen", "title": "Ramen"}, {"alias": "noodles", "title": "Noodles"}, {"alias": "salad", "title": "Salad"}], "rating": 4.5, "coordinates": {"latitude": 40.7474881059799, "longitude": -73.996648862958}, "transactions": ["delivery", "pickup"], "price": "$$", "location": {"address1": "330 8th Ave", "address2": null, "address3": null, "city": "New York", "zip_code": "10001", "country": "US", "state": "NY", "display_address": ["330 8th Ave", "New York, NY 10001"]}, "phone": "+19173918587", "display_phone": "(917) 391-8587", "distance": 2083.1611687068635, "cuisine": "japanese"}, {"id": "g2Y6tEvxajhphg6mnUd7zQ", "alias": "hakurakuso-new-york", "name": "Hakurakuso", "image_url": "https://s3-media3.fl.yelpcdn.com/bphoto/LFybmxFleTbUjZyHtKzs1w/o.jpg", "is_closed": false, "url": "https://www.yelp.com/biz/hakurakuso-new-york?adjust_creative=jtr0-h2hTZMxFOWOENvd4Q&utm_campaign=yelp_api_v3&utm_medium=api_v3_business_search&utm_source=jtr0-h2hTZMxFOWOENvd4Q", "review_count": 19, "categories": [{"alias": "japanese", "title": "Japanese"}, {"alias": "sushi", "title": "Sushi Bars"}], "rating": 4.0, "coordinates": {"latitude": 40.75547, "longitude": -73.97021}, "transactions": [], "location": {"address1": "208 E 50th St", "address2": "", "address3": null, "city": "New York", "zip_code": "10022", "country": "US", "state": "NY", "display_address": ["208 E 50th St", "New York, NY 10022"]}, "phone": "+19176134567", "display_phone": "(917) 613-4567", "distance": 869.6397671147969, "cuisine": "japanese"}, {"id": "diz6_4TVSP6EdWEZCZ0Acg", "alias": "kaoru-new-york", "name": "Kaoru", "image_url": "https://s3-media3.fl.yelpcdn.com/bphoto/7Xv6nQwtb07E_Z-GgqOfUw/o.jpg", "is_closed": false, "url": "https://www.yelp.com/biz/kaoru-new-york?adjust_creative=jtr0-h2hTZMxFOWOENvd4Q&utm_campaign=yelp_api_v3&utm_medium=api_v3_business_search&utm_source=jtr0-h2hTZMxFOWOENvd4Q", "review_count": 488, "categories": [{"alias": "japanese", "title": "Japanese"}], "rating": 4.5, "coordinates": {"latitude": 40.75202, "longitude": -73.96977}, "transactions": ["delivery", "pickup"], "price": "$$", "location": {"address1": "306 E 46th St", "address2": "", "address3": "", "city": "New York", "zip_code": "10017", "country": "US", "state": "NY", "display_address": ["306 E 46th St", "New York, NY 10017"]}, "phone": "+12128670874", "display_phone": "(212) 867-0874", "distance": 1162.9544122492748, "cuisine": "japanese"}, {"id": "VzstANC68PM1BbyOcDXEtw", "alias": "donburiya-new-york-2", "name": "Donburiya", "image_url": "https://s3-media1.fl.yelpcdn.com/bphoto/iE66wlw2f3QrK2oybK2tIA/o.jpg", "is_closed": false, "url": "https://www.yelp.com/biz/donburiya-new-york-2?adjust_creative=jtr0-h2hTZMxFOWOENvd4Q&utm_campaign=yelp_api_v3&utm_medium=api_v3_business_search&utm_source=jtr0-h2hTZMxFOWOENvd4Q", "review_count": 444, "categories": [{"alias": "japanese", "title": "Japanese"}, {"alias": "seafood", "title": "Seafood"}, {"alias": "desserts", "title": "Desserts"}], "rating": 4.0, "coordinates": {"latitude": 40.76528, "longitude": -73.98326}, "transactions": ["delivery", "pickup"], "price": "$$", "location": {"address1": "253 W 55th St", "address2": "", "address3": "", "city": "New York", "zip_code": "10019", "country": "US", "state": "NY", "display_address": ["253 W 55th St", "New York, NY 10019"]}, "phone": "+12129807909", "display_phone": "(212) 980-7909", "distance": 693.7616659149346, "cuisine": "japanese"}, {"id": "BPZfuPvSxCfoppU4lPFm0Q", "alias": "domodomo-new-york-new-york-4", "name": "DOMODOMO - New York", "image_url": "https://s3-media1.fl.yelpcdn.com/bphoto/YX89PDM_-aBCL2USyNyhuw/o.jpg", "is_closed": false, "url": "https://www.yelp.com/biz/domodomo-new-york-new-york-4?adjust_creative=jtr0-h2hTZMxFOWOENvd4Q&utm_campaign=yelp_api_v3&utm_medium=api_v3_business_search&utm_source=jtr0-h2hTZMxFOWOENvd4Q", "review_count": 1593, "categories": [{"alias": "japanese", "title": "Japanese"}, {"alias": "sushi", "title": "Sushi Bars"}], "rating": 4.0, "coordinates": {"latitude": 40.7280299, "longitude": -74.00167}, "transactions": ["delivery"], "price": "$$$", "location": {"address1": "140 W Houston St", "address2": null, "address3": "", "city": "New York", "zip_code": "10012", "country": "US", "state": "NY", "display_address": ["140 W Houston St", "New York, NY 10012"]}, "phone": "+16467070301", "display_phone": "(646) 707-0301", "distance": 4076.035977454668, "cuisine": "japanese"}, {"id": "OLSSJIp8pu5UlugTF7tuHA", "alias": "ootoya-chelsea-new-york", "name": "Ootoya Chelsea", "image_url": "https://s3-media3.fl.yelpcdn.com/bphoto/bBYOWD2DUwWaML3ADlcZ9Q/o.jpg", "is_closed": false, "url": "https://www.yelp.com/biz/ootoya-chelsea-new-york?adjust_creative=jtr0-h2hTZMxFOWOENvd4Q&utm_campaign=yelp_api_v3&utm_medium=api_v3_business_search&utm_source=jtr0-h2hTZMxFOWOENvd4Q", "review_count": 1543, "categories": [{"alias": "sushi", "title": "Sushi Bars"}, {"alias": "hotpot", "title": "Hot Pot"}, {"alias": "japacurry", "title": "Japanese Curry"}], "rating": 4.0, "coordinates": {"latitude": 40.73881, "longitude": -73.99279}, "transactions": ["delivery", "restaurant_reservation", "pickup"], "price": "$$", "location": {"address1": "8 W 18th St", "address2": "", "address3": "", "city": "New York", "zip_code": "10011", "country": "US", "state": "NY", "display_address": ["8 W 18th St", "New York, NY 10011"]}, "phone": "+12122550018", "display_phone": "(212) 255-0018", "distance": 2665.7334170720537, "cuisine": "japanese"}, {"id": "6t5xWjPLWAjJV3YFMX_oaw", "alias": "hirohisa-new-york", "name": "Hirohisa", "image_url": "https://s3-media3.fl.yelpcdn.com/bphoto/dNKyVSPkyARQreQ1rHbKmg/o.jpg", "is_closed": false, "url": "https://www.yelp.com/biz/hirohisa-new-york?adjust_creative=jtr0-h2hTZMxFOWOENvd4Q&utm_campaign=yelp_api_v3&utm_medium=api_v3_business_search&utm_source=jtr0-h2hTZMxFOWOENvd4Q", "review_count": 203, "categories": [{"alias": "japanese", "title": "Japanese"}], "rating": 4.5, "coordinates": {"latitude": 40.724597, "longitude": -74.003174}, "transactions": ["delivery"], "price": "$$$$", "location": {"address1": "73 Thompson St", "address2": null, "address3": "", "city": "New York", "zip_code": "10012", "country": "US", "state": "NY", "display_address": ["73 Thompson St", "New York, NY 10012"]}, "phone": "+12129251613", "display_phone": "(212) 925-1613", "distance": 4472.881622564104, "cuisine": "japanese"}, {"id": "pNe8ZCkGTe4cXfKdOF7kYQ", "alias": "ise-restaurant-new-york-3", "name": "Ise Restaurant", "image_url": "https://s3-media2.fl.yelpcdn.com/bphoto/S5SGXwZfHG8Esw2x9-CF4A/o.jpg", "is_closed": false, "url": "https://www.yelp.com/biz/ise-restaurant-new-york-3?adjust_creative=jtr0-h2hTZMxFOWOENvd4Q&utm_campaign=yelp_api_v3&utm_medium=api_v3_business_search&utm_source=jtr0-h2hTZMxFOWOENvd4Q", "review_count": 641, "categories": [{"alias": "japanese", "title": "Japanese"}, {"alias": "sushi", "title": "Sushi Bars"}], "rating": 4.5, "coordinates": {"latitude": 40.7291024, "longitude": -73.9900618}, "transactions": ["delivery", "restaurant_reservation", "pickup"], "price": "$$", "location": {"address1": "63 Cooper Sq", "address2": null, "address3": "", "city": "New York", "zip_code": "10003", "country": "US", "state": "NY", "display_address": ["63 Cooper Sq", "New York, NY 10003"]}, "phone": "+12122284152", "display_phone": "(212) 228-4152", "distance": 3594.04004852408, "cuisine": "japanese"}, {"id": "5ZgCfc1_fotAKUp7n3YJkQ", "alias": "towa-new-york-3", "name": "Towa", "image_url": "https://s3-media4.fl.yelpcdn.com/bphoto/BOoLPUB53FHS6mS3yNl6yw/o.jpg", "is_closed": false, "url": "https://www.yelp.com/biz/towa-new-york-3?adjust_creative=jtr0-h2hTZMxFOWOENvd4Q&utm_campaign=yelp_api_v3&utm_medium=api_v3_business_search&utm_source=jtr0-h2hTZMxFOWOENvd4Q", "review_count": 92, "categories": [{"alias": "japanese", "title": "Japanese"}, {"alias": "sushi", "title": "Sushi Bars"}, {"alias": "cocktailbars", "title": "Cocktail Bars"}], "rating": 4.5, "coordinates": {"latitude": 40.7442, "longitude": -73.99062}, "transactions": [], "price": "$$$", "location": {"address1": "36 W 26th St", "address2": null, "address3": "", "city": "New York", "zip_code": "10010", "country": "US", "state": "NY", "display_address": ["36 W 26th St", "New York, NY 10010"]}, "phone": "+16463516258", "display_phone": "(646) 351-6258", "distance": 2048.370507661524, "cuisine": "japanese"}, {"id": "3QIFBLKp2Z9zA-PXlUEQlg", "alias": "okatte-tanto-ny-new-york", "name": "Okatte Tanto NY", "image_url": "https://s3-media4.fl.yelpcdn.com/bphoto/zMcbrSejic3cPb2yT6Rc4Q/o.jpg", "is_closed": false, "url": "https://www.yelp.com/biz/okatte-tanto-ny-new-york?adjust_creative=jtr0-h2hTZMxFOWOENvd4Q&utm_campaign=yelp_api_v3&utm_medium=api_v3_business_search&utm_source=jtr0-h2hTZMxFOWOENvd4Q", "review_count": 18, "categories": [{"alias": "japanese", "title": "Japanese"}], "rating": 4.5, "coordinates": {"latitude": 40.75455, "longitude": -73.96941}, "transactions": ["delivery"], "location": {"address1": "249 E 49th St", "address2": "", "address3": null, "city": "New York", "zip_code": "10017", "country": "US", "state": "NY", "display_address": ["249 E 49th St", "New York, NY 10017"]}, "phone": "", "display_phone": "", "distance": 989.2835928571462, "cuisine": "japanese"}, {"id": "Hfq50FEuWpPgc9nXBOO1IA", "alias": "shogun-omakase-new-york-2", "name": "Shogun Omakase", "image_url": "https://s3-media4.fl.yelpcdn.com/bphoto/qjYteYEkrMgb9BAWbEvveg/o.jpg", "is_closed": false, "url": "https://www.yelp.com/biz/shogun-omakase-new-york-2?adjust_creative=jtr0-h2hTZMxFOWOENvd4Q&utm_campaign=yelp_api_v3&utm_medium=api_v3_business_search&utm_source=jtr0-h2hTZMxFOWOENvd4Q", "review_count": 74, "categories": [{"alias": "sushi", "title": "Sushi Bars"}, {"alias": "japanese", "title": "Japanese"}], "rating": 4.5, "coordinates": {"latitude": 40.751676, "longitude": -73.979675}, "transactions": ["delivery", "restaurant_reservation", "pickup"], "location": {"address1": "295 Madison Ave", "address2": "", "address3": null, "city": "New York", "zip_code": "10017", "country": "US", "state": "NY", "display_address": ["295 Madison Ave", "New York, NY 10017"]}, "phone": "+19176757272", "display_phone": "(917) 675-7272", "distance": 979.0018543770784, "cuisine": "japanese"}, {"id": "NRJq2BNcbjqAyxUB_bw7gw", "alias": "momoya-new-york", "name": "Momoya", "image_url": "https://s3-media1.fl.yelpcdn.com/bphoto/ff4nvXd0UTpc1GwNIqY_KQ/o.jpg", "is_closed": false, "url": "https://www.yelp.com/biz/momoya-new-york?adjust_creative=jtr0-h2hTZMxFOWOENvd4Q&utm_campaign=yelp_api_v3&utm_medium=api_v3_business_search&utm_source=jtr0-h2hTZMxFOWOENvd4Q", "review_count": 822, "categories": [{"alias": "sushi", "title": "Sushi Bars"}, {"alias": "japanese", "title": "Japanese"}, {"alias": "salad", "title": "Salad"}], "rating": 4.0, "coordinates": {"latitude": 40.7426255196333, "longitude": -73.9966481924057}, "transactions": ["delivery"], "price": "$$", "location": {"address1": "185 7th Ave", "address2": null, "address3": "", "city": "New York", "zip_code": "10011", "country": "US", "state": "NY", "display_address": ["185 7th Ave", "New York, NY 10011"]}, "phone": "+12129894466", "display_phone": "(212) 989-4466", "distance": 2475.6414268096987, "cuisine": "japanese"}, {"id": "wpT1QU7PSQgQQ1DkzI00JA", "alias": "izakaya-toribar-new-york", "name": "Izakaya Toribar", "image_url": "https://s3-media3.fl.yelpcdn.com/bphoto/BLeJxuHmu9HYpnxFQn4HNw/o.jpg", "is_closed": false, "url": "https://www.yelp.com/biz/izakaya-toribar-new-york?adjust_creative=jtr0-h2hTZMxFOWOENvd4Q&utm_campaign=yelp_api_v3&utm_medium=api_v3_business_search&utm_source=jtr0-h2hTZMxFOWOENvd4Q", "review_count": 174, "categories": [{"alias": "tapasmallplates", "title": "Tapas/Small Plates"}, {"alias": "izakaya", "title": "Izakaya"}, {"alias": "bars", "title": "Bars"}], "rating": 4.0, "coordinates": {"latitude": 40.759641, "longitude": -73.9685558}, "transactions": ["delivery", "pickup"], "price": "$$", "location": {"address1": "164 E 56th St", "address2": null, "address3": "", "city": "New York", "zip_code": "10022", "country": "US", "state": "NY", "display_address": ["164 E 56th St", "New York, NY 10022"]}, "phone": "+16467670029", "display_phone": "(646) 767-0029", "distance": 840.0057966679174, "cuisine": "japanese"}, {"id": "D6ZEcG1FCZ18nekMWrhgMg", "alias": "wokuni-new-york", "name": "Wokuni", "image_url": "https://s3-media4.fl.yelpcdn.com/bphoto/xheUQ28Q5cRQfIzAkpl9Uw/o.jpg", "is_closed": false, "url": "https://www.yelp.com/biz/wokuni-new-york?adjust_creative=jtr0-h2hTZMxFOWOENvd4Q&utm_campaign=yelp_api_v3&utm_medium=api_v3_business_search&utm_source=jtr0-h2hTZMxFOWOENvd4Q", "review_count": 397, "categories": [{"alias": "japanese", "title": "Japanese"}, {"alias": "seafood", "title": "Seafood"}], "rating": 4.0, "coordinates": {"latitude": 40.7492189, "longitude": -73.9773529}, "transactions": ["delivery", "pickup"], "price": "$$$", "location": {"address1": "327 Lexington Ave", "address2": null, "address3": "", "city": "New York", "zip_code": "10016", "country": "US", "state": "NY", "display_address": ["327 Lexington Ave", "New York, NY 10016"]}, "phone": "+12124471212", "display_phone": "(212) 447-1212", "distance": 1226.5134313553338, "cuisine": "japanese"}, {"id": "_F29-1dkiBmDPSaKQ9_O0Q", "alias": "hakata-tonton-new-york-7", "name": "Hakata Tonton", "image_url": "https://s3-media3.fl.yelpcdn.com/bphoto/b7TR_0gULGWB76o7TD0Bhw/o.jpg", "is_closed": false, "url": "https://www.yelp.com/biz/hakata-tonton-new-york-7?adjust_creative=jtr0-h2hTZMxFOWOENvd4Q&utm_campaign=yelp_api_v3&utm_medium=api_v3_business_search&utm_source=jtr0-h2hTZMxFOWOENvd4Q", "review_count": 174, "categories": [{"alias": "japanese", "title": "Japanese"}], "rating": 4.0, "coordinates": {"latitude": 40.749981, "longitude": -73.985719}, "transactions": [], "location": {"address1": "35 W 35th St", "address2": null, "address3": null, "city": "New York", "zip_code": "10001", "country": "US", "state": "NY", "display_address": ["35 W 35th St", "New York, NY 10001"]}, "phone": "+19172616536", "display_phone": "(917) 261-6536", "distance": 1291.2109403352863, "cuisine": "japanese"}, {"id": "8NVN6Nldm7AGoGaABBZMRw", "alias": "izakaya-nomad-new-york", "name": "Izakaya NoMad", "image_url": "https://s3-media1.fl.yelpcdn.com/bphoto/x6LU7HmGUVlry7lIP76P8A/o.jpg", "is_closed": false, "url": "https://www.yelp.com/biz/izakaya-nomad-new-york?adjust_creative=jtr0-h2hTZMxFOWOENvd4Q&utm_campaign=yelp_api_v3&utm_medium=api_v3_business_search&utm_source=jtr0-h2hTZMxFOWOENvd4Q", "review_count": 741, "categories": [{"alias": "gastropubs", "title": "Gastropubs"}, {"alias": "izakaya", "title": "Izakaya"}, {"alias": "bars", "title": "Bars"}], "rating": 4.0, "coordinates": {"latitude": 40.74409, "longitude": -73.98945}, "transactions": ["delivery", "pickup"], "price": "$$", "location": {"address1": "13 W 26th St", "address2": "", "address3": "", "city": "New York", "zip_code": "10010", "country": "US", "state": "NY", "display_address": ["13 W 26th St", "New York, NY 10010"]}, "phone": "+12122136258", "display_phone": "(212) 213-6258", "distance": 2010.1839108822005, "cuisine": "japanese"}, {"id": "XfOCJ841dL9fPBY_BAyayA", "alias": "soboku-brooklyn", "name": "SOBOKU", "image_url": "https://s3-media3.fl.yelpcdn.com/bphoto/QVgGkxMPo_UHRYxJAG3trg/o.jpg", "is_closed": false, "url": "https://www.yelp.com/biz/soboku-brooklyn?adjust_creative=jtr0-h2hTZMxFOWOENvd4Q&utm_campaign=yelp_api_v3&utm_medium=api_v3_business_search&utm_source=jtr0-h2hTZMxFOWOENvd4Q", "review_count": 21, "categories": [{"alias": "japanese", "title": "Japanese"}], "rating": 5.0, "coordinates": {"latitude": 40.682529, "longitude": -73.99346}, "transactions": ["delivery", "pickup"], "location": {"address1": "276 Smith St", "address2": null, "address3": "", "city": "Brooklyn", "zip_code": "11231", "country": "US", "state": "NY", "display_address": ["276 Smith St", "Brooklyn, NY 11231"]}, "phone": "+19179090328", "display_phone": "(917) 909-0328", "distance": 8727.789858404223, "cuisine": "japanese"}, {"id": "qm1J_dPA5IHij1oAnoZwHw", "alias": "nonono-new-york-6", "name": "nonono", "image_url": "https://s3-media1.fl.yelpcdn.com/bphoto/TqFGBv0yqN6D4cneKOTTJA/o.jpg", "is_closed": false, "url": "https://www.yelp.com/biz/nonono-new-york-6?adjust_creative=jtr0-h2hTZMxFOWOENvd4Q&utm_campaign=yelp_api_v3&utm_medium=api_v3_business_search&utm_source=jtr0-h2hTZMxFOWOENvd4Q", "review_count": 1178, "categories": [{"alias": "izakaya", "title": "Izakaya"}, {"alias": "cocktailbars", "title": "Cocktail Bars"}], "rating": 4.0, "coordinates": {"latitude": 40.74541891599005, "longitude": -73.98492926795281}, "transactions": ["delivery", "pickup"], "price": "$$$", "location": {"address1": "118 Madison Ave", "address2": "", "address3": "", "city": "New York", "zip_code": "10016", "country": "US", "state": "NY", "display_address": ["118 Madison Ave", "New York, NY 10016"]}, "phone": "+16467073227", "display_phone": "(646) 707-3227", "distance": 1732.0687838771119, "cuisine": "japanese"}, {"id": "Brs_MJhAXe60iMnlpeqkKA", "alias": "yakiniku-west-new-york", "name": "Yakiniku West", "image_url": "https://s3-media1.fl.yelpcdn.com/bphoto/-fupV0FUFVEfcBtW9FaNNA/o.jpg", "is_closed": false, "url": "https://www.yelp.com/biz/yakiniku-west-new-york?adjust_creative=jtr0-h2hTZMxFOWOENvd4Q&utm_campaign=yelp_api_v3&utm_medium=api_v3_business_search&utm_source=jtr0-h2hTZMxFOWOENvd4Q", "review_count": 769, "categories": [{"alias": "bbq", "title": "Barbeque"}, {"alias": "izakaya", "title": "Izakaya"}], "rating": 4.0, "coordinates": {"latitude": 40.72965099486931, "longitude": -73.98855901656697}, "transactions": ["delivery", "restaurant_reservation", "pickup"], "price": "$$", "location": {"address1": "218 E 9th St", "address2": "", "address3": "", "city": "New York", "zip_code": "10003", "country": "US", "state": "NY", "display_address": ["218 E 9th St", "New York, NY 10003"]}, "phone": "+16465968027", "display_phone": "(646) 596-8027", "distance": 3502.596487028878, "cuisine": "japanese"}, {"id": "i8ejDDR4COtukAAA1Ls5fw", "alias": "soba-ya-new-york", "name": "Soba-ya", "image_url": "https://s3-media3.fl.yelpcdn.com/bphoto/tRp07xFhPFLZ324K3WiZlQ/o.jpg", "is_closed": false, "url": "https://www.yelp.com/biz/soba-ya-new-york?adjust_creative=jtr0-h2hTZMxFOWOENvd4Q&utm_campaign=yelp_api_v3&utm_medium=api_v3_business_search&utm_source=jtr0-h2hTZMxFOWOENvd4Q", "review_count": 1562, "categories": [{"alias": "japanese", "title": "Japanese"}, {"alias": "noodles", "title": "Noodles"}], "rating": 4.0, "coordinates": {"latitude": 40.72965, "longitude": -73.9878899}, "transactions": ["delivery", "pickup"], "price": "$$", "location": {"address1": "229 E 9th St", "address2": "", "address3": "", "city": "New York", "zip_code": "10003", "country": "US", "state": "NY", "display_address": ["229 E 9th St", "New York, NY 10003"]}, "phone": "+12125336966", "display_phone": "(212) 533-6966", "distance": 3490.091897782256, "cuisine": "japanese"}, {"id": "kN3rkbjvqkY62CDRYUVz4g", "alias": "yopparai-new-york", "name": "Yopparai", "image_url": "https://s3-media1.fl.yelpcdn.com/bphoto/-Dz8UMOELWlFJTjcXZQy6w/o.jpg", "is_closed": false, "url": "https://www.yelp.com/biz/yopparai-new-york?adjust_creative=jtr0-h2hTZMxFOWOENvd4Q&utm_campaign=yelp_api_v3&utm_medium=api_v3_business_search&utm_source=jtr0-h2hTZMxFOWOENvd4Q", "review_count": 266, "categories": [{"alias": "izakaya", "title": "Izakaya"}], "rating": 4.5, "coordinates": {"latitude": 40.71975013980203, "longitude": -73.98488557728082}, "transactions": ["delivery", "pickup"], "price": "$$$", "location": {"address1": "49 Clinton St", "address2": "Ground Floor", "address3": "", "city": "New York", "zip_code": "10002", "country": "US", "state": "NY", "display_address": ["49 Clinton St", "Ground Floor", "New York, NY 10002"]}, "phone": "+12127777253", "display_phone": "(212) 777-7253", "distance": 4531.516843309329, "cuisine": "japanese"}, {"id": "bBF9ZJZp6Dxoc2Qms4KmhQ", "alias": "shokudo-34-new-york", "name": "Shokudo 34", "image_url": "https://s3-media1.fl.yelpcdn.com/bphoto/2Xt8GBjBGQ1trm-xswblbw/o.jpg", "is_closed": false, "url": "https://www.yelp.com/biz/shokudo-34-new-york?adjust_creative=jtr0-h2hTZMxFOWOENvd4Q&utm_campaign=yelp_api_v3&utm_medium=api_v3_business_search&utm_source=jtr0-h2hTZMxFOWOENvd4Q", "review_count": 15, "categories": [{"alias": "ramen", "title": "Ramen"}, {"alias": "beer_and_wine", "title": "Beer, Wine & Spirits"}], "rating": 5.0, "coordinates": {"latitude": 40.74611, "longitude": -73.97943}, "transactions": ["delivery", "pickup"], "location": {"address1": "138 E 34th St", "address2": "", "address3": null, "city": "New York", "zip_code": "10016", "country": "US", "state": "NY", "display_address": ["138 E 34th St", "New York, NY 10016"]}, "phone": "+16466783228", "display_phone": "(646) 678-3228", "distance": 1579.67191963809, "cuisine": "japanese"}, {"id": "X8yEmEDD9ZTkHoIRFqzcRw", "alias": "osamil-new-york", "name": "Osamil", "image_url": "https://s3-media2.fl.yelpcdn.com/bphoto/H6vmivma_q2fk_Vfbo9ZVA/o.jpg", "is_closed": false, "url": "https://www.yelp.com/biz/osamil-new-york?adjust_creative=jtr0-h2hTZMxFOWOENvd4Q&utm_campaign=yelp_api_v3&utm_medium=api_v3_business_search&utm_source=jtr0-h2hTZMxFOWOENvd4Q", "review_count": 712, "categories": [{"alias": "korean", "title": "Korean"}, {"alias": "gastropubs", "title": "Gastropubs"}, {"alias": "tapasmallplates", "title": "Tapas/Small Plates"}], "rating": 4.5, "coordinates": {"latitude": 40.74697, "longitude": -73.9864}, "transactions": ["delivery", "pickup"], "price": "$$$", "location": {"address1": "5 West 31st St", "address2": null, "address3": "", "city": "New York", "zip_code": "10001", "country": "US", "state": "NY", "display_address": ["5 West 31st St", "New York, NY 10001"]}, "phone": "+12123004713", "display_phone": "(212) 300-4713", "distance": 1618.0928341081865, "cuisine": "japanese"}, {"id": "YoR6ouUwehLFnBQ7RAjPlw", "alias": "zawa-japanese-new-york", "name": "Zawa Japanese", "image_url": "https://s3-media2.fl.yelpcdn.com/bphoto/wG34fTqgmtoelYxP0yMX8g/o.jpg", "is_closed": false, "url": "https://www.yelp.com/biz/zawa-japanese-new-york?adjust_creative=jtr0-h2hTZMxFOWOENvd4Q&utm_campaign=yelp_api_v3&utm_medium=api_v3_business_search&utm_source=jtr0-h2hTZMxFOWOENvd4Q", "review_count": 160, "categories": [{"alias": "japanese", "title": "Japanese"}, {"alias": "sushi", "title": "Sushi Bars"}], "rating": 4.5, "coordinates": {"latitude": 40.76397, "longitude": -73.9592}, "transactions": ["delivery", "restaurant_reservation"], "price": "$$$", "location": {"address1": "354 E 66th St", "address2": null, "address3": "", "city": "New York", "zip_code": "10065", "country": "US", "state": "NY", "display_address": ["354 E 66th St", "New York, NY 10065"]}, "phone": "+16466827999", "display_phone": "(646) 682-7999", "distance": 1678.432933404502, "cuisine": "japanese"}, {"id": "SxKvgnkMMZdhBJcxxKQnww", "alias": "nobu-fifty-seven-new-york-2", "name": "Nobu Fifty Seven", "image_url": "https://s3-media3.fl.yelpcdn.com/bphoto/INqGC_ky4oZ_rPMcSjNlQA/o.jpg", "is_closed": false, "url": "https://www.yelp.com/biz/nobu-fifty-seven-new-york-2?adjust_creative=jtr0-h2hTZMxFOWOENvd4Q&utm_campaign=yelp_api_v3&utm_medium=api_v3_business_search&utm_source=jtr0-h2hTZMxFOWOENvd4Q", "review_count": 1469, "categories": [{"alias": "sushi", "title": "Sushi Bars"}, {"alias": "japanese", "title": "Japanese"}], "rating": 4.0, "coordinates": {"latitude": 40.76371615273354, "longitude": -73.97624989600685}, "transactions": ["delivery"], "price": "$$$$", "location": {"address1": "40 W 57th St", "address2": null, "address3": "", "city": "New York", "zip_code": "10019", "country": "US", "state": "NY", "display_address": ["40 W 57th St", "New York, NY 10019"]}, "phone": "+12127573000", "display_phone": "(212) 757-3000", "distance": 433.0071276600505, "cuisine": "japanese"}, {"id": "RYKGs45OjF-vlb2Ds2Jb_g", "alias": "izakaya-juraku-new-york-2", "name": "Izakaya Juraku", "image_url": "https://s3-media2.fl.yelpcdn.com/bphoto/uSnwD8tAlriBYJvMGEFmnA/o.jpg", "is_closed": false, "url": "https://www.yelp.com/biz/izakaya-juraku-new-york-2?adjust_creative=jtr0-h2hTZMxFOWOENvd4Q&utm_campaign=yelp_api_v3&utm_medium=api_v3_business_search&utm_source=jtr0-h2hTZMxFOWOENvd4Q", "review_count": 208, "categories": [{"alias": "bars", "title": "Bars"}, {"alias": "izakaya", "title": "Izakaya"}, {"alias": "ramen", "title": "Ramen"}], "rating": 4.5, "coordinates": {"latitude": 40.7196796287355, "longitude": -73.9887088537216}, "transactions": ["delivery", "pickup"], "price": "$$$", "location": {"address1": "121 Ludlow St", "address2": "", "address3": null, "city": "New York", "zip_code": "10002", "country": "US", "state": "NY", "display_address": ["121 Ludlow St", "New York, NY 10002"]}, "phone": "+12124770100", "display_phone": "(212) 477-0100", "distance": 4588.635980013438, "cuisine": "japanese"}, {"id": "_2V0as8DZDwVxAi3ZJ0JkA", "alias": "raku-its-japanese-ii-new-york-2", "name": "Raku - It's Japanese II", "image_url": "https://s3-media1.fl.yelpcdn.com/bphoto/5S2dXwXXQOTCXNNrbcr9QA/o.jpg", "is_closed": false, "url": "https://www.yelp.com/biz/raku-its-japanese-ii-new-york-2?adjust_creative=jtr0-h2hTZMxFOWOENvd4Q&utm_campaign=yelp_api_v3&utm_medium=api_v3_business_search&utm_source=jtr0-h2hTZMxFOWOENvd4Q", "review_count": 416, "categories": [{"alias": "japanese", "title": "Japanese"}, {"alias": "sushi", "title": "Sushi Bars"}], "rating": 4.0, "coordinates": {"latitude": 40.779997, "longitude": -73.976516}, "transactions": ["delivery", "pickup"], "price": "$$", "location": {"address1": "57 W 76th St", "address2": "", "address3": "", "city": "New York", "zip_code": "10023", "country": "US", "state": "NY", "display_address": ["57 W 76th St", "New York, NY 10023"]}, "phone": "+12128731220", "display_phone": "(212) 873-1220", "distance": 2206.0038908843994, "cuisine": "japanese"}, {"id": "J9UA6rzI5WW_cDGjwDnF5g", "alias": "tsuru-ton-tan-new-york", "name": "Tsuru Ton Tan", "image_url": "https://s3-media3.fl.yelpcdn.com/bphoto/c9hcLCpECKyUOT2eBXKH3A/o.jpg", "is_closed": false, "url": "https://www.yelp.com/biz/tsuru-ton-tan-new-york?adjust_creative=jtr0-h2hTZMxFOWOENvd4Q&utm_campaign=yelp_api_v3&utm_medium=api_v3_business_search&utm_source=jtr0-h2hTZMxFOWOENvd4Q", "review_count": 2314, "categories": [{"alias": "japanese", "title": "Japanese"}, {"alias": "noodles", "title": "Noodles"}, {"alias": "sushi", "title": "Sushi Bars"}], "rating": 4.0, "coordinates": {"latitude": 40.73678, "longitude": -73.9910699}, "transactions": ["delivery", "pickup"], "price": "$$", "location": {"address1": "21 E 16th St", "address2": "", "address3": "", "city": "New York", "zip_code": "10003", "country": "US", "state": "NY", "display_address": ["21 E 16th St", "New York, NY 10003"]}, "phone": "+12129891000", "display_phone": "(212) 989-1000", "distance": 2810.1154146782123, "cuisine": "japanese"}, {"id": "O1XrvIq-6IlLunLYEjOiFQ", "alias": "kushi-kushi-yaki-new-york", "name": "Kushi Kushi Yaki", "image_url": "https://s3-media4.fl.yelpcdn.com/bphoto/mDV-AlivKt9Fqe41WjxQzA/o.jpg", "is_closed": false, "url": "https://www.yelp.com/biz/kushi-kushi-yaki-new-york?adjust_creative=jtr0-h2hTZMxFOWOENvd4Q&utm_campaign=yelp_api_v3&utm_medium=api_v3_business_search&utm_source=jtr0-h2hTZMxFOWOENvd4Q", "review_count": 150, "categories": [{"alias": "tapasmallplates", "title": "Tapas/Small Plates"}, {"alias": "izakaya", "title": "Izakaya"}, {"alias": "ramen", "title": "Ramen"}], "rating": 4.5, "coordinates": {"latitude": 40.747266, "longitude": -73.9861784}, "transactions": ["delivery", "pickup"], "price": "$$", "location": {"address1": "2 W 32nd St", "address2": null, "address3": "", "city": "New York", "zip_code": "10001", "country": "US", "state": "NY", "display_address": ["2 W 32nd St", "New York, NY 10001"]}, "phone": "+12122793075", "display_phone": "(212) 279-3075", "distance": 1578.4314049876064, "cuisine": "japanese"}, {"id": "MwtXOkRUndPU-ivbtLD-bQ", "alias": "amura-japanese-new-york", "name": "Amura Japanese", "image_url": "https://s3-media3.fl.yelpcdn.com/bphoto/4DDr_LGvYG68gyN3tH_I3Q/o.jpg", "is_closed": false, "url": "https://www.yelp.com/biz/amura-japanese-new-york?adjust_creative=jtr0-h2hTZMxFOWOENvd4Q&utm_campaign=yelp_api_v3&utm_medium=api_v3_business_search&utm_source=jtr0-h2hTZMxFOWOENvd4Q", "review_count": 396, "categories": [{"alias": "japanese", "title": "Japanese"}, {"alias": "sushi", "title": "Sushi Bars"}], "rating": 4.0, "coordinates": {"latitude": 40.775001, "longitude": -73.9542}, "transactions": ["delivery", "pickup"], "price": "$$", "location": {"address1": "1567 2nd Ave", "address2": "", "address3": "", "city": "New York", "zip_code": "10028", "country": "US", "state": "NY", "display_address": ["1567 2nd Ave", "New York, NY 10028"]}, "phone": "+12127721688", "display_phone": "(212) 772-1688", "distance": 2628.9750274859143, "cuisine": "japanese"}, {"id": "mESab-FqL5QqSVsnX72asQ", "alias": "zen-ramen-and-sushi-new-york", "name": "Zen Ramen & Sushi", "image_url": "https://s3-media1.fl.yelpcdn.com/bphoto/lZ5lOYihsojZmYjnvSZGPg/o.jpg", "is_closed": false, "url": "https://www.yelp.com/biz/zen-ramen-and-sushi-new-york?adjust_creative=jtr0-h2hTZMxFOWOENvd4Q&utm_campaign=yelp_api_v3&utm_medium=api_v3_business_search&utm_source=jtr0-h2hTZMxFOWOENvd4Q", "review_count": 2675, "categories": [{"alias": "sushi", "title": "Sushi Bars"}, {"alias": "ramen", "title": "Ramen"}, {"alias": "salad", "title": "Salad"}], "rating": 4.5, "coordinates": {"latitude": 40.75177475474212, "longitude": -73.98897630211589}, "transactions": ["delivery", "pickup"], "price": "$$", "location": {"address1": "150 W 36th street", "address2": "", "address3": "", "city": "New York", "zip_code": "10018", "country": "US", "state": "NY", "display_address": ["150 W 36th street", "New York, NY 10018"]}, "phone": "+16468707509", "display_phone": "(646) 870-7509", "distance": 1288.1723974685067, "cuisine": "japanese"}, {"id": "9bAyxRD6RsGEUQw424ovQA", "alias": "nishida-sho-ten-new-york-2", "name": "Nishida Sho-ten", "image_url": "https://s3-media2.fl.yelpcdn.com/bphoto/Ke5UqiuHQDoD1e8e54f28Q/o.jpg", "is_closed": false, "url": "https://www.yelp.com/biz/nishida-sho-ten-new-york-2?adjust_creative=jtr0-h2hTZMxFOWOENvd4Q&utm_campaign=yelp_api_v3&utm_medium=api_v3_business_search&utm_source=jtr0-h2hTZMxFOWOENvd4Q", "review_count": 915, "categories": [{"alias": "ramen", "title": "Ramen"}], "rating": 4.0, "coordinates": {"latitude": 40.753969, "longitude": -73.968722}, "transactions": ["delivery", "pickup"], "price": "$$", "location": {"address1": "302 E 49th St", "address2": "", "address3": "", "city": "New York", "zip_code": "10017", "country": "US", "state": "NY", "display_address": ["302 E 49th St", "New York, NY 10017"]}, "phone": "+12123080791", "display_phone": "(212) 308-0791", "distance": 1077.3532695654783, "cuisine": "japanese"}]